,address,at_street,description,latitude,location_type,longitude,municipality,name,on_street,platform_code,platform_name,vehicle_type,wheelchair_boarding
24486,,,,42.365535,0,-71.09133,Cambridge,Broadway @ Hampshire St,Broadway,,,3.0,1
8556,,Dedham Street,,42.29468,0,-71.178978,Newton,Spiers Rd @ Dedham St,Spiers Road,,,3.0,1
door-pktrm-exitashbrain,,,Park Street - Escalator to Tremont St (South),42.355976,2,-71.062427,Boston,Park Street - Escalator to Tremont St (South),,,,,2
3124,,,,42.273004,0,-71.031092,Quincy,W Squantum St @ Farrington St,West Squantum Street,,,3.0,1
node-dwnxg-112fare-paid,,,Downtown Crossing - Paid side of exit-only gate,,3,,Boston,Downtown Crossing,,,,,1
32004,,,Quincy Center - Berth 4,42.251908,0,-71.0052,Quincy,Quincy Center,Busway,,Berth 4,3.0,1
1616,,Crown Point Drive,,42.257411,0,-71.146391,Boston,Margaretta Dr @ Crown Point Dr,Margaretta Drive,,,3.0,1
node-sstat-north-farepaid,,,South Station - Paid side of fare gates,,3,,Boston,South Station,,,,,1
4554,,Powder House Lane,,42.514019,0,-70.906524,Salem,Opp 30 Highland Ave,Highland Avenue,,,3.0,0
38481,,Trescott Street,,42.238055,0,-71.002967,Quincy,Franklin St opp Trescott St,Franklin Street,,,3.0,1
2406,,Dearborn Road,,42.4052,0,-71.117309,Somerville,College Ave @ Dearborn Rd,College Avenue,,,3.0,1
2128,,Poplar Street,,42.381743,0,-71.178011,Belmont,Trapelo Rd opp Poplar St,Trapelo Road,,,3.0,1
1268,,,,42.348224,0,-71.149882,Boston,Washington St @ Shepard St,Washington Street,,,3.0,1
6230,,Jasper Street,,42.462849,0,-71.009496,Saugus,Central St @ Jasper St,Central Street,,,3.0,1
node-149-lobby,,,Tufts Medical Center - Top of Escalator 149,,3,,Boston,Tufts Medical Center,,,,,1
5250,,Ardale Street,,42.29326,0,-71.13749,Boston,1437 Centre St opp Ardale St,Centre Street,,,3.0,1
171,,Columbus Avenue,,42.348569,0,-71.071717,Boston,Berkeley St @ Columbus Ave,Berkeley Street,,,3.0,1
16132,,Burrill Street,,42.475691,0,-70.922283,Swampscott,Essex St opp Burrill St,Essex Street,,,3.0,1
1475,,Cameron Street,,42.311233,0,-71.062553,Boston,Hancock St @ Bowdoin St,Hancock Street,,,3.0,1
5460,,Salem Place,,42.430118,0,-71.059667,Malden,Salem St @ Salem Pl,Salem Street,,,3.0,1
6739,,Hayes Street,,42.470654,0,-70.991878,Lynn,Garfield Ave @ Hayes St,Garfield Avenue,,,3.0,1
84791,,Walsh Road,,42.289995,0,-71.191092,Newton,Sawmill Brook Pkwy @ Walsh Rd,Sawmill Brook Parkway,,,3.0,1
4376,,Huntington Road,,42.256122,0,-71.046067,Milton,Edge Hill Rd @ Huntington Rd,Edgehill Road,,,3.0,1
7774,,Brookway Road,,42.404137,0,-71.234024,Waltham,Lexington St @ Brookway Rd,Lexington Street,,,3.0,1
14822,,Alden Road,,42.469623,0,-70.896067,Swampscott,Humphrey St @ Alden Rd,Humphrey Street,,,3.0,1
node-rcmnl-134-platform,,,Roxbury Crossing - Bottom of Escalator 134,42.331132,3,-71.095658,Boston,Roxbury Crossing,,,,,1
place-kntst,"Beacon St and Powell St, Brookline, MA",,,42.344074,1,-71.114197,Brookline,Kent Street,,,,,2
111152,,Highland Avenue,,42.303427,0,-70.913293,Hull,Main St from Pemberton Pnt to Spring St (FLAG),Main Street,,,3.0,1
49157,,,,42.407864,0,-71.093296,Medford,61 Locust St,Locust Street,,,3.0,1
door-symcl-huntw,,,"Symphony - Massachusetts Ave, Huntington Ave (West)",42.342822,2,-71.085185,Boston,"Symphony - Massachusetts Ave, Huntington Ave (West)",,,,,2
2395,,McGrath Highway,,42.386513,0,-71.090342,Somerville,Pearl St @ McGrath Hwy,Pearl Street,,,3.0,1
1621,,Georgetowne Drive,,42.259345,0,-71.145404,Boston,W Boundary Rd @ Georgetowne Dr,West Boundary Road,,,3.0,1
node-davis-341stair-lobby,,,Davis - Top of northern stairs for platform,,3,,Somerville,Davis,,,,,1
place-NEC-2108,"1 Upland Rd, Sharon, MA 02067",,,42.124553,1,-71.184468,Sharon,Sharon,,,,,1
node-lbusstairs-upper,,,Sullivan Square - Top of stairs for lower busway,,3,,Boston,Sullivan Square,,,,,1
5088,,Tucker Street,,42.438855,0,-71.089402,Medford,Highland Ave @ Tucker St,Highland Avenue,,,3.0,1
node-chels-thirdnorth-top,,,Chelsea - Top of ramp between Third St and Boston-bound platform,42.397625,3,-71.043811,Chelsea,Chelsea,,,,,1
4087,,Rockdale Street,,42.226198,0,-71.031754,Braintree,Granite St @ Braintree Hill Pk,Granite Street,,,3.0,1
3405,,Furnace Avenue,,42.245243,0,-71.027985,Quincy,Copeland St @ Furnace Ave,Copeland Street,,,3.0,1
node-wlsta-lobbysteps-upper,,,Wollaston - Top of stairs between Newport Avenue and parking lobbies,,3,,Quincy,Wollaston,,,,,1
4147,,Unnamed Road,,42.252277,0,-71.075258,Milton,Opp 202 Reedsdale Rd @ MIlton Hospital,Reedsdale Road,,,3.0,1
3034,,Butler Road,,42.257445,0,-71.008194,Quincy,Hancock St opp Butler Rd,Hancock Street,,,3.0,1
1812,,Putnam Avenue,,42.357438,0,-71.107841,Cambridge,Brookline St @ Putnam Ave,Brookline Street,,,3.0,1
node-867-lobby,,,Broadway - Top of platform elevator,,3,,Boston,Broadway,,,,,1
5347,,Cross Street,,42.421724,0,-71.058851,Malden,Ferry St @ Cross St,Ferry Street,,,3.0,1
3382,,Thistle Avenue,,42.271453,0,-71.047956,Milton,Granite Ave opp Thistle Ave,Granite Avenue,,,3.0,1
9070114,,Chiswick Road,Chiswick Road - Green Line Park Street & North Shuttle - Commonwealth Ave @ Chiswick Rd,42.340378,0,-71.150962,Boston,Chiswick Road - Commonwealth Ave @ Chiswick Rd,Commonwealth Avenue,,Park Street & North Shuttle,3.0,1
109892,,Pleasant Street,,42.37431,0,-70.991123,Winthrop,Pauline St @ Pleasant St,Pauline Street,,,3.0,1
6839,,Brook Street,,42.471801,0,-70.930928,Lynn,86 Timson St,Timson Street,,,3.0,1
7898,,Hartwell Avenue,,42.476175,0,-71.251528,Lexington,Bedford St @ Hartwell Ave,Bedford Street,,,3.0,1
node-fldcr-fareunpaid,,,Fields Corner - Unpaid side of fare gates,42.300049,3,-71.061699,Boston,Fields Corner,,,,,1
node-state-statestreetstairs-lobby,,,State - Bottom of stairs between lobby and City Hall,,3,,Boston,State,,,,,1
5274,,Second Street,,42.412252,0,-71.084731,Medford,Fellsway @ Second St,Fellsway,,,3.0,1
4498,,Albert J Brown Circle,,42.420606,0,-71.003376,Revere,462 American Legion Hwy,American Legion Highway,,,3.0,1
4523,,Stanley Terrace,,42.460699,0,-70.967777,Lynn,Western Ave @ Walden St,Western Avenue,,,3.0,1
2139,,Cottage Street,,42.394334,0,-71.170817,Belmont,Concord Ave @ Cottage St,Concord Avenue,,,3.0,1
3284,,Algonquin Road,,42.262293,0,-70.989019,Quincy,Sea St @ Algonquin Rd,Sea Street,,,3.0,1
4490,,Minot Street,,42.457611,0,-70.971438,Lynn,Western Ave @ Albion St,Western Avenue,,,3.0,1
1154,,Bromley Street,,42.325366,0,-71.099579,Boston,Heath St @ Bromley St,Heath Street,,,3.0,1
31391,,Gainsborough Street,,42.341443,0,-71.086788,Boston,Huntington Ave @ Gainsborough St,Huntington Avenue,,,3.0,1
822,,Bogandale Road,,42.276483,0,-71.160531,Boston,Centre St @ Autumn St,Centre Street,,,3.0,1
5653,,Cross Street,,42.39055,0,-71.03815,Chelsea,Broadway opp Cross St,Broadway,,,3.0,1
door-bbsta-underpass,,,Back Bay - Underpass to Copley Place,42.347273,2,-71.076565,Boston,Back Bay - Underpass to Copley Place,,,,,2
3864,,West Street,,42.215052,0,-71.004547,Braintree,Washington St @ West St,Washington Street,,,3.0,1
NB-0137-S,,,Needham Heights - Commuter Rail - Track 1 (All Trains),42.293444,0,-71.236027,Needham,Needham Heights,,1,Track 1 (All Trains),2.0,1
4892,,Atlantic Street,,42.464347,0,-70.934505,Lynn,Lewis St @ Chestnut St,Lewis Street,,,3.0,1
3143,,East Squantum Street,,42.29687,0,-71.014445,Quincy,Huckins Ave @ E Squantum St,Huckins Avenue,,,3.0,1
place-GB-0296,"290 Essex Ave, Gloucester, MA 01930",,,42.611933,1,-70.705417,Gloucester,West Gloucester,,,,,1
node-wondl-oceanramp-bottom,,,Wonderland - Street level of Ocean Ave ramp,42.413377,3,-70.990498,Revere,Wonderland,,,,,1
4885,,Rock Avenue,,42.469272,0,-70.922852,Swampscott,New Ocean St opp Rock Ave,New Ocean Street,,,3.0,1
node-davis-colstairlow-middle,,,Davis - Top of lower stairs for College Avenue,,3,,Somerville,Davis,,,,,1
3256,,Malvern Street,,42.265772,0,-70.961911,Quincy,Sea St opp Malvern St,Sea Street,,,3.0,1
1191,,,,42.357458,0,-71.128045,Boston,Cambridge St @ Lincoln St,Cambridge Street,,,3.0,1
8681,,King Street,,42.293028,0,-71.057347,Boston,Adams St @ King St,Adams Street,,,3.0,1
door-welln-garage,,,"Wellington - Station Landing, Garage",42.402461,2,-71.080092,Medford,"Wellington - Station Landing, Garage",,,,,1
FR-0301,,,Littleton/Route 495 - Commuter Rail,42.519236,0,-71.502643,Littleton,Littleton/Route 495,,,Commuter Rail,2.0,1
121014,,,,42.207886,0,-71.124052,Canton,Royall St @ JW Foster Blvd,Royall Street,,,3.0,1
2203,,Ramp - Frontage Rd To Rt 2 Westbound,,42.414845,0,-71.191827,Arlington,West Service Rd @ Florence Ave,Frontage Road,,,3.0,1
node-chncl-ogfarepaid,,,Chinatown - Paid side of fare gates,,3,,Boston,Chinatown,,,,,1
2044,,Patten Street,,42.366608,0,-71.181318,Watertown,Mt Auburn St @ Summer St,Mount Auburn Street,,,3.0,1
188,,,,42.34157,0,-71.083092,Boston,Massachusetts Ave @ Massachusetts Ave Station,Massachusetts Avenue,,,3.0,1
1688,,,,42.481169,0,-71.186437,Burlington,Cambridge St @ Ray Ave,Cambridge Street,,,3.0,1
8169,,Crafts Street,,42.356766,0,-71.206749,Newton,Watertown St @ Crafts St,Watertown Street,,,3.0,1
77375,,Beech Street,,42.367514,0,-71.235743,Waltham,High St @ Beech St,High Street,,,3.0,1
15857,,Orleans Street,,42.368109,0,-71.038158,Boston,Sumner St @ Orleans St,Sumner Street,,,3.0,1
7269,,,,42.540734,0,-70.945123,Peabody,Northshore Mall @ Entrance F,,,,3.0,1
9145,,Arden Road,,42.431377,0,-71.130914,Medford,Winthrop St @ Playstead Rd,Winthrop Street,,,3.0,1
6756,,Boston Street,,42.463753,0,-70.976015,Lynn,Myrtle St @ Boston St,Myrtle Street,,,3.0,1
door-knncl-sbcarleton,,,Kendall/MIT - Carleton St,42.362005,2,-71.086255,Cambridge,Kendall/MIT - Carleton St,,,,,2
7914,,Hillside Avenue,,42.427756,0,-71.201908,Lexington,430 Massachusetts Ave,Massachusetts Avenue,,,3.0,1
6178,,Palmer Street,,42.515362,0,-70.892584,Salem,Lafayette St @ Palmer St,Lafayette Street,,,3.0,1
2750,,Pearl Street,,42.38578,0,-71.087844,Somerville,Cross St @ Pearl St,Cross Street,,,3.0,1
70051,,,Orient Heights - Blue Line - Bowdoin,42.386909,0,-71.004809,Boston,Orient Heights,,,Bowdoin,1.0,1
4609,,Margin Street Court,,42.539954,0,-70.918699,Peabody,Margin St opp Margin St Ct,Margin Street,,,3.0,1
630,,Brahms Street,,42.276717,0,-71.138763,Boston,Washington St @ Blue Ledge Dr,Washington Street,,,3.0,1
23823,,Rockway Avenue,,42.190805,0,-70.951359,Weymouth,Middle St opp Rockaway Ave,Middle Street,,,3.0,1
6603,,Baltimore Street,,42.461609,0,-70.937398,Lynn,Nahant St @ W Baltimore St,Nahant Street,,,3.0,1
node-shmnl-sydstair-lobby,,,Savin Hill - Top of stairs between Sydney Street and lobby,42.310838,3,-71.053681,Boston,Savin Hill,,,,,1
1029,,Commonwealth Avenue,,42.338312,0,-71.153451,Boston,Chestnut Hill Ave @ Commonwealth Ave,Chestnut Hill Avenue,,,3.0,1
MM-0356-S,,,Middleborough/Lakeville - Commuter Rail - Track 1 (All Trains),41.87821,0,-70.918444,Lakeville,Middleborough/Lakeville,,1,Track 1 (All Trains),2.0,1
node-938-platform,,,Courthouse - Bottom of elevator between outbound platform and lobby,,3,,Boston,Courthouse,,,,,1
1186,,Westminster Avenue,,42.317182,0,-71.097046,Boston,Washington St @ Bray St,Washington Street,,,3.0,1
8483,,McCarthy Road,,42.296307,0,-71.186386,Newton,Wiswall Rd @ McCarthy Rd,Wiswall Road,,,3.0,1
3088,,Adams Street,,42.298223,0,-71.057257,Boston,Gibson St @ Adams St,Gibson Street,,,3.0,1
4912,,Fuller Terrace,,42.467182,0,-70.913713,Swampscott,260 Humphrey St,Humphrey Street,,,3.0,1
849,,Burard Street,,42.285967,0,-71.163863,Boston,Lagrange St opp Burard St,La Grange Street,,,3.0,1
door-brkhl-bhs,,,Brookline Hills - Tappan St (West),42.331446,2,-71.127064,Brookline,Brookline Hills - Tappan St (West),,,,,1
8547,,McCarthy Road,,42.296122,0,-71.187017,Newton,Wiswall Rd opp McCarthy Rd,Wiswall Road,,,3.0,1
23530,,Brunswick Road,,42.406486,0,-71.162733,Arlington,244 Pleasant St opp Brunswick Rd,Pleasant Street,,,3.0,1
5047,,Main Street,,42.415184,0,-71.064193,Malden,Belmont St @ Main St,Belmont Street,,,3.0,1
FR-0394-B1,,Phoenix Street,Shirley - Commuter Rail Boston Shuttle - Front St @ Phoenix St,42.54485,0,-71.647958,Shirley,Shirley - Front St @ Phoenix St,Front Street,,Boston Shuttle,3.0,1
3069,,King Street,,42.294329,0,-71.052328,Boston,Neponset Ave @ King St,Neponset Avenue,,,3.0,1
node-sstat-ashbrain-fareunpaid,,,South Station - Unpaid side of exit-only gates,,3,,Boston,South Station,,,,,1
1843,,Maple Street,,42.291526,0,-71.157421,Boston,Weld St @ Maple St,Weld Street,,,3.0,1
2082,,Lakeview Avenue,,42.380851,0,-71.140111,Cambridge,Huron Ave @ Lakeview Ave,Huron Avenue,,,3.0,1
3843,,Winthrop Park,,42.243849,0,-70.98963,Quincy,South St @ Winthrop Pk,South Street,,,3.0,1
70178,,,Brookline Hills - Green Line - Park Street & North,42.331293,0,-71.126406,Brookline,Brookline Hills,,,Park Street & North,0.0,1
619,,Rockland Street,,42.258509,0,-71.160255,Boston,Washington St @ Rockland Towers,Washington Street,,,3.0,1
18542,,Rosalie Road,,42.302033,0,-71.190013,Newton,Dedham St opp Rosalie Rd,Dedham Street,,,3.0,1
3356,,Pilgrim Road,,42.256932,0,-71.03545,Milton,Adams St @ Washington St,Adams Street,,,3.0,1
5245,,Allandale Street,,42.300839,0,-71.127376,Boston,Centre St @ Faulkner Hospital,Centre Street,,,3.0,1
place-fldcr,"50 Freeman St, Dorchester, MA 02122",,,42.300093,1,-71.061667,Boston,Fields Corner,,,,,1
node-448-bridge,,,Wollaston - Top of escalator from parking lobby to bridge,,3,,Quincy,Wollaston,,,,,1
node-jfk-ashcolstair-platform,,,"JFK/UMass - Bottom of stairs from Ashmont, Alewife platform and Columbia Road",42.321173,3,-71.052577,Boston,JFK/UMass,,,,,1
node-river-estairs-lobby,,,Riverside - Top of stairs for Grove Street,42.337291,3,-71.252617,Newton,Riverside,,,,,1
node-762-bottom,,,Lechmere - Bottom of North First St Elevator 762,42.371655,3,-71.076675,Cambridge,Lechmere,,,,,1
6315,,Madison Street,,42.422941,0,-71.134416,Medford,Playstead Rd opp Madison St,Playstead Road,,,3.0,1
39691,,Union Street,,42.213364,0,-70.988413,Braintree,Middle St @ Union St,Middle Street,,,3.0,1
node-405-street,,,Aquarium - Top of escalator from Atlantic Avenue to lobby,,3,,Boston,Aquarium,,,,,1
place-DB-0095,"1800 Hyde Park Ave, Hyde Park, MA 02136",,,42.238405,1,-71.133246,Boston,Readville,,,,,1
1027,,Englewood Avenue,,42.337121,0,-71.152079,Boston,Chestnut Hill Ave @ Englewood Ave,Chestnut Hill Avenue,,,3.0,1
node-rugg-bus1stairs-lobby,,,Ruggles - Top of Lower Busway Lane 1 stairs,,3,,Boston,Ruggles,,,,,1
door-mvbcl-square,,,"Maverick - Sumner St, Maverick Square",42.369193,2,-71.0395,Boston,"Maverick - Sumner St, Maverick Square",,,,,1
2223,,Inman Street,,42.370062,0,-71.102797,Cambridge,Broadway @ Inman St,Broadway,,,3.0,1
2061,,Keenan Street,,42.37273,0,-71.154963,Watertown,Mt Auburn St opp Keenan St,Mount Auburn Street,,,3.0,1
882,,Richmond Street,,42.274026,0,-71.067521,Boston,Dorchester Ave @ Richmond St,Dorchester Avenue,,,3.0,1
4189,,Warren Street,,42.165748,0,-71.043483,Randolph,N Main St @ Warren St,North Main Street,,,3.0,1
3375,,Hutchinson Street,,42.280178,0,-71.064545,Boston,Gallivan Blvd @ Hutchinson St,Gallivan Boulevard,,,3.0,1
2689,,,,42.382606,0,-71.091137,Somerville,422 McGrath Hwy,McGrath Highway,,,3.0,1
2560,,Franklin Street,,42.361892,0,-71.130333,Boston,N Harvard St @ Kingsley St,North Harvard Street,,,3.0,1
333,,Busway,,42.338284,0,-71.031327,Boston,E 1st St @ City Point Bus Terminal,East First Street,,,3.0,1
4167,,Hills Street,,42.197378,0,-71.061267,Randolph,N Main St @ Hills St,North Main Street,,,3.0,1
7919,,Drake Road,,42.425322,0,-71.189411,Arlington,Massachusetts Ave opp Drake Rd,Massachusetts Avenue,,,3.0,1
5219,,Bradfield Avenue,,42.290298,0,-71.140829,Boston,Centre St @ Bradfield Ave,Centre Street,,,3.0,1
843,,Dent Street,,42.281377,0,-71.159686,Boston,Lagrange St @ Dent St,La Grange Street,,,3.0,1
70234,,,Dean Road - Green Line - Park Street & North,42.337628,0,-71.142309,Brookline,Dean Road,,,Park Street & North,0.0,2
2288,,Brattle Street,,42.420463,0,-71.169933,Arlington,Massachusetts Ave @ Brattle St,Massachusetts Avenue,,,3.0,1
1239,,Church Street,,42.34818,0,-71.067595,Boston,Tremont St @ Marginal St,Tremont Street,,,3.0,1
5826,,Beach Street,,42.407203,0,-71.010246,Revere,Winthrop Ave @ Beach St,Winthrop Avenue,,,3.0,1
6143,,Chatham Street,,42.471625,0,-70.934655,Lynn,Essex St @ Chatham St,Essex Street,,,3.0,1
node-state-oldstate-fareunpaid,,,State - Unpaid side of fare gates,,3,,Boston,State,,,,,1
436,,Thetford Avenue,,42.286419,0,-71.079551,Boston,Norfolk St @ Charles Rd,Norfolk Street,,,3.0,1
501,,Pleasant Hill Avenue,,42.278153,0,-71.072729,Boston,Gallivan Blvd @ Nevada St,Gallivan Boulevard,,,3.0,2
3193,,Lincoln Avenue,,42.263566,0,-71.017689,Quincy,Newport Ave @ Lincoln Ave,Newport Avenue,,,3.0,1
3662,,Curtis Street,,42.240647,0,-70.944161,Weymouth,North St opp Curtis St,North Street,,,3.0,1
7357,,Averill Street,,42.487182,0,-70.964721,Lynn,Lynnfield St @ Averill St,Lynnfield Street,,,3.0,1
NHRML-0218-B1,,,North Billerica - Commuter Rail Shuttle,42.593132,0,-71.281252,Billerica,North Billerica - West Parking Lot,,,Commuter Rail Shuttle - West Parking Lot,3.0,1
89609,,,,42.397559,0,-71.253762,Waltham,Totten Pond Rd @ Winter St,Totten Pond Road,,,3.0,1
570,,Saint Gregory Street,,42.275594,0,-71.067229,Boston,Dorchester Ave @ St Gregory St,Dorchester Avenue,,,3.0,1
CM-0564-S,,,Bourne - CapeFLYER - Track 1 (All Trains),41.746497,0,-70.588772,Bourne,Bourne,,1,Track 1 (All Trains),2.0,1
3877,,Highland Avenue,,42.192026,0,-71.006572,Braintree,Hancock St @ Highland Ave,Hancock Street,,,3.0,1
3996,,Diman Avenue,,42.128749,0,-71.008903,Holbrook,S Franklin St @ Diman Ave,South Franklin Street,,,3.0,1
3931,,Hobart Avenue,,42.208851,0,-71.003654,Braintree,Washington St opp Hobart Ave,Washington Street,,,3.0,1
node-bbsta-w57stairs-platform,,,Back Bay - Bottom of Tracks 5-7 west stairs,,3,,Boston,Back Bay,,,,,1
6409,,Faraday Street,,42.244059,0,-71.123604,Boston,Washington St @ Faraday St,Washington Street,,,3.0,1
node-rugg-crstairs-lobby,,,Ruggles - Top of Commuter Rail (Tracks 1 & 3) platform stairs,,3,,Boston,Ruggles,,,,,1
node-bmmnl-378stair-lobby,,,Beachmont - Bottom of stairs for Bowdoin,42.397377,3,-70.992599,Revere,Beachmont,,,,,1
6626,,Emerald Road,,42.425708,0,-70.926173,Nahant,Spring Rd @ Emerald Rd,Spring Road,,,3.0,1
4230,,,,42.133687,0,-71.039778,Avon,Main St opp Demarco Park,North Main Street,,,3.0,1
70129,,,Griggs Street - Green Line - (B) Boston College,42.348919,0,-71.134305,Boston,Griggs Street,,,Boston College,0.0,2
6357,,Way Street,,42.256236,0,-71.12058,Boston,River St @ Way St,River Street,,,3.0,1
8212,,Elliot Street,,42.312554,0,-71.221176,Newton,Oak St @ Elliot St,Oak Street,,,3.0,1
6715,,Pond Street,,42.480159,0,-71.00644,Saugus,Opp 323 Walnut St,Walnut Street,,,3.0,1
6405,,Dana Avenue,,42.24676,0,-71.118824,Boston,Washington St @ Dana Ave,Washington Street,,,3.0,1
2143,,Edgemoor Road,,42.392231,0,-71.163816,Belmont,Concord Ave @ Edgemoor Rd,Concord Avenue,,,3.0,1
2674,,Cutter Avenue,,42.395122,0,-71.119331,Somerville,Highland Ave @ Cutter Ave,Highland Avenue,,,3.0,1
2429,,Pemberton Street,,42.392521,0,-71.125386,Cambridge,Rindge Ave @ Pemberton St,Rindge Avenue,,,3.0,1
70105,,,Braintree - Red Line,42.207424,0,-71.001645,Braintree,Braintree,,,Red Line,1.0,1
7442,,Chestnut Street,,42.458849,0,-70.989327,Saugus,30 Lincoln Ave,Lincoln Avenue,,,3.0,1
480,,Bradlee Street,,42.297467,0,-71.072631,Boston,Washington St @ Algonquin St,Washington Street,,,3.0,1
node-qnctr-elevfareunpaid,,,Quincy Center - Unpaid side of Elevator 810 fare gates,42.251538,3,-71.00522,Quincy,Quincy Center,,,,,1
8436,,Pleasant Street,,42.428863,0,-71.206655,Lexington,Massachusetts Ave opp Pleasant St,Massachusetts Avenue,,,3.0,1
node-341-lobby,,,Davis - Top of Escalator 341,,3,,Somerville,Davis,,,,,1
NEC-2287-01,,,South Station - Commuter Rail - Track 1,42.351302,0,-71.05571,Boston,South Station,,1,Commuter Rail - Track 1,2.0,1
6535,,Devonshire Street,,42.355521,0,-71.057253,Boston,Franklin St @ Devonshire St,Franklin Street,,,3.0,1
door-jfk-oldcolony,,,"JFK/UMass - Busway, JFK Library, Mount Vernon St (Stairs)",42.320829,2,-71.051623,Boston,"JFK/UMass - Busway, JFK Library, Mount Vernon St (Stairs)",,,,,2
ER-0362-02,,,Newburyport - Commuter Rail - Track 2,42.797837,0,-70.87797,Newburyport,Newburyport,,2,Track 2,2.0,1
1615,,,,42.25809,0,-71.144959,Boston,Georgetowne Dr @ Margaretta Dr,Georgetowne Drive,,,3.0,1
3944,,Holmes Street,,42.230354,0,-71.00531,Braintree,Opp 41 Independence Ave,Independence Avenue,,,3.0,1
node-mvbcl-lewfareunpaid,,,Maverick - Unpaid side of Lewis Mall fare gates,42.368184,3,-71.040301,Boston,Maverick,,,,,1
20761,,,Harvard - Upper Busway,42.374217,0,-71.11897,Cambridge,Harvard,Harvard Busway,,Upper Busway,3.0,1
9159,,Hall Street,,42.410994,0,-71.089816,Medford,Riverside Ave @ Hall St,Riverside Avenue,,,3.0,1
4931,,Pound Lane,,42.535074,0,-70.929826,Peabody,Andover St @ Pound Ln,Andover Street,,,3.0,1
76052,,Russell Street,,42.375512,0,-71.249977,Waltham,South St @ Russell St,South Street,,,3.0,1
NEC-2265-01,,,Ruggles - Commuter Rail - Track 1,42.336339,0,-71.089517,Boston,Ruggles,,1,Commuter Rail - Track 1,2.0,1
5637,,Victoria Street,,42.4064,0,-71.054381,Everett,Chelsea St @ Victoria St,Chelsea Street,,,3.0,1
5104,,College Avenue,Davis - Busway,42.396646,0,-71.121879,Somerville,Davis,Busway,,Busway,3.0,1
525,,Wellington Hill Street,,42.28537,0,-71.093181,Boston,Morton St @ Greendale Rd,Morton Street,,,3.0,1
14548,,,,42.504419,0,-70.921548,Salem,Highland Ave @ Hawthorne Sq,Highland Avenue,,,3.0,1
PB-0281-S,,,Halifax - Commuter Rail - Track 1 (All Trains),42.014739,0,-70.824263,Halifax,Halifax,,1,Track 1 (All Trains),2.0,1
node-state-ogoldstatehousestairs-nbplatform,,,"State - Bottom of stairs between Oak Grove platform and State St, Devonshire St",,3,,Boston,State,,,,,1
2419,,Pitcher Avenue,,42.421038,0,-71.139183,Medford,High St @ Pitcher Ave,High Street,,,3.0,0
5689,,Irving Street,,42.403156,0,-71.04637,Everett,Chelsea St @ Irving St,Chelsea Street,,,3.0,1
node-770-bottom,,,Medford/Tufts - Bottom of Elevator 770,42.407966,3,-71.117009,Medford,Medford/Tufts,,,,,1
5441,,Cross Street,,42.431174,0,-71.054536,Malden,Salem St @ Granville Ave,Salem Street,,,3.0,0
FR-0201,,,Concord - Commuter Rail,42.456565,0,-71.357677,Concord,Concord,,,Commuter Rail,2.0,2
node-998-ol,,,Downtown Crossing - Top of elevator between Alewife platform and Oak Grove platform,,3,,Boston,Downtown Crossing,,,,,1
MM-0200,,,Brockton - Commuter Rail,42.084659,0,-71.016534,Brockton,Brockton,,,Commuter Rail,2.0,1
5538,,Allston Street,,42.411196,0,-71.016755,Revere,Park Ave @ Allston St,Park Avenue,,,3.0,1
10768,,Grove Street,,42.268863,0,-71.161907,Boston,Centre St @ Grove St,Centre Street,,,3.0,1
16538,,Summer Street,,42.354271,0,-71.059508,Boston,Chauncy St @ Summer St,Chauncey Street,,,3.0,1
9096,,Faxon Street,,42.453896,0,-71.056828,Melrose,Grove St @ Gooch St,Grove Street,,,3.0,1
3618,,Bayview Street,,42.2428,0,-70.954102,Weymouth,Bridge St @ Bayview St,Bridge Street,,,3.0,1
5585,,,,42.410236,0,-71.013618,Revere,40 Park Ave,Park Avenue,,,3.0,1
6104,,Washington Street,,42.516983,0,-70.893016,Salem,Lafayette St @ Harbor St,Lafayette Street,,,3.0,1
49797,,,,42.516176,0,-71.250897,Bedford,7 Oak Park Dr,Oak Park Drive,,,3.0,1
1470,,Olney Street,,42.305319,0,-71.06809,Boston,Bowdoin St @ Norton St,Bowdoin Street,,,3.0,1
node-923-platform,,,Aquarium - Bottom of elevator between Bowdoin platform and Atlantic Avenue,,3,,Boston,Aquarium,,,,,1
2422,,Webcowet Road,,42.418504,0,-71.14606,Arlington,Medford St @ Webcowet Rd,Medford Street,,,3.0,1
70130,,,Harvard Avenue - Green Line - Park Street & North,42.350263,0,-71.131298,Boston,Harvard Avenue,,,Park Street & North,0.0,1
door-shmnl-sydney,,,Savin Hill - South Sydney St,42.310856,2,-71.053701,Boston,Savin Hill - South Sydney St,,,,,1
16001,,Whittier Street,,42.454298,0,-71.077159,Melrose,Wyoming Ave @ Melbourne Ave,West Wyoming Avenue,,,3.0,1
3985,,Woodlawn Avenue,,42.123766,0,-71.012296,Holbrook,1002 S Franklin St,South Franklin Street,,,3.0,1
node-jfk-ashcolstair-lobby,,,"JFK/UMass - Top of stairs from Ashmont, Alewife platform and Columbia Road",42.321284,3,-71.052585,Boston,JFK/UMass,,,,,1
ER-0183-01,,,Beverly - Commuter Rail - Track 1 (Outbound),42.547276,0,-70.885432,Beverly,Beverly,,1,Track 1 (Outbound),2.0,1
2083,,Chilton Street,,42.381198,0,-71.137926,Cambridge,Huron Ave @ Gurney St,Huron Avenue,,,3.0,1
10821,,,,42.276908,0,-71.172904,Boston,Charles Park Rd @ VFW Pkwy,Charles Park Road,,,3.0,1
9054,,Thacher Street,,42.42026,0,-71.079831,Malden,Highland Ave @ Thacher St,Highland Avenue,,,3.0,1
49836,,Felton Street,,42.485828,0,-71.128156,Woburn,Pine St opp Felton St,Pine Street,,,3.0,1
node-840-lobby,,,Sullivan Square - Top of Elevator 840,,3,,Boston,Sullivan Square,,,,,1
7961,,Park Avenue Extension,,42.43183,0,-71.17617,Arlington,Forest St @ Heard Rd,Forest Street,,,3.0,1
2551,,,,42.366948,0,-71.125108,Boston,N Harvard St @ Gate 2 Harvard Stadium,North Harvard Street,,,3.0,1
86458,,Mount Calvary Road,,42.277571,0,-71.114692,Boston,Cummins Hwy @ Calvary Cemetery,Cummins Highway,,,3.0,1
5903,,Marion Street,,42.377783,0,-71.037177,Boston,Lexington St @ Marion St,Lexington Street,,,3.0,1
NHRML-0152-B,,,Wilmington - Commuter Rail Shuttle - Parking Lot,42.546948,0,-71.174367,Wilmington,Wilmington - Parking Lot,,,Commuter Rail Shuttle,3.0,1
node-406-lobby,,,Aquarium - Bottom of escalator from lobby to Atlantic Avenue,,3,,Boston,Aquarium,,,,,1
2420,,,,42.420656,0,-71.141849,Medford,High St @ Mystic Valley Pkwy,High Street,,,3.0,1
7123,,Colon Street,,42.557806,0,-70.880516,Beverly,Cabot St opp Colon St,Cabot Street,,,3.0,1
4227,,Frederickson Drive,,42.14215,0,-71.040927,Randolph,625 S Main St opp Frederickson Dr,South Main Street,,,3.0,1
4216,,Van Beal Road,,42.15862,0,-71.0435,Randolph,S Main St @ Woodlawn St,South Main Street,,,3.0,1
86968,,Whitlowe Road,,42.359108,0,-71.239519,Newton,Lexington St @ Whitlowe Rd,Lexington Street,,,3.0,1
6376,,Metropolitan Avenue,,42.260492,0,-71.115601,Boston,River St @ Metropolitan Ave,River Street,,,3.0,1
5058,,Main Street,,42.415327,0,-71.064299,Malden,Belmont St @ Main St,Belmont Street,,,3.0,1
place-belsq,,,,42.395438,1,-71.033884,Chelsea,Bellingham Square,,,,,1
6752,,Myrtle Street,,42.468743,0,-70.976675,Lynn,Holyoke St @ Myrtle St,Holyoke Street,,,3.0,0
191,,North Street,,42.360387,0,-71.057129,Boston,Congress St @ North St,Congress Street,,,3.0,1
4367,,Mathaurs Street,,42.249623,0,-71.064182,Milton,Pleasant St @ Mathaurs St,Pleasant Street,,,3.0,1
6394,,Vose Avenue,,42.255414,0,-71.112847,Boston,Beacon St @ Metropolitan Ave,Beacon Street,,,3.0,1
WML-0125-01,,,Wellesley Farms - Commuter Rail - Track 1,42.323608,0,-71.272288,Wellesley,Wellesley Farms,,1,Track 1,2.0,2
NEC-2040,,,Mansfield - Commuter Rail,42.032787,0,-71.219917,Mansfield,Mansfield,,,Commuter Rail,2.0,1
5986,,Converse Lane,,42.44649,0,-71.071853,Melrose,Pleasant St @ Converse Ln,Pleasant Street,,,3.0,1
5397,,Floyd Street,,42.413477,0,-71.063608,Everett,Main St @ Floyd St,Main Street,,,3.0,1
5816,,Waterview Avenue,,42.396329,0,-70.984086,Revere,200 Endicott Ave,Endicott Avenue,,,3.0,1
49829,,,,42.485319,0,-71.14078,Woburn,45 Bow St,Bow Street,,,3.0,1
70177,,,Beaconsfield - Green Line - (D) Riverside,42.335912,0,-71.140903,Brookline,Beaconsfield,,,Riverside,0.0,2
2865,,North Mead Street,,42.381137,0,-71.066955,Boston,Bunker Hill St @ N Mead St,Bunker Hill Street,,,3.0,1
70078,,,Downtown Crossing - Red Line - Alewife,42.355518,0,-71.060225,Boston,Downtown Crossing,,,Alewife,1.0,1
70241,,,Symphony - Green Line - (E) Heath Street,42.342687,0,-71.085056,Boston,Symphony,,,Heath Street,0.0,2
10835,,,,42.253283,0,-71.170494,Dedham,Dedham Mall @ South Side,,,,3.0,1
5484,,Cameron Street,,42.420212,0,-71.044062,Everett,Broadway @ Cameron St,Broadway,,,3.0,1
4604,,Liberty Hill Avenue,,42.529932,0,-70.906347,Salem,North St @ Liberty Hill Ave,North Street,,,3.0,1
node-harsq-lowerramp-lobby,,,Harvard - Top of ramp between main lobby and Lower Busway,,3,,Cambridge,Harvard,,,,,1
70151,,,"Kenmore - Green Line - (C) Cleveland Circle, (D) Riverside",42.348949,0,-71.095169,Boston,Kenmore,,,"Cleveland Circle, Riverside",0.0,1
NEC-2237,,,Forest Hills - Commuter Rail,42.301085,0,-71.113551,Boston,Forest Hills,,,Commuter Rail,2.0,1
2854,,Mount Vernon Street,,42.374386,0,-71.058189,Boston,Adams St @ Lowney Way,Adams Street,,,3.0,1
GRB-0162-S,,,West Hingham - Commuter Rail - Track 1 (All Trains),42.235838,0,-70.902708,Hingham,West Hingham,,1,Track 1 (All Trains),2.0,1
2032,,French Terrace,,42.3739,0,-71.152444,Watertown,Mt Auburn St @ Saint Marys St,Mount Auburn Street,,,3.0,0
6848,,Alden Street,,42.481184,0,-70.936112,Lynn,Eastern Ave @ Alden St,Eastern Avenue,,,3.0,1
6202,,Appleton Street,,42.421252,0,-71.182991,Arlington,Park Ave @ Appleton St,Park Avenue,,,3.0,0
6252,,Conant Street,,42.419713,0,-71.013275,Revere,Malden St @ Conant St,Malden Street,,,3.0,1
78219,,Prospect Street,,42.345723,0,-71.233334,Newton,Washington St @ Prospect St,Washington Street,,,3.0,1
node-prmnl-921ramp-platform,,,Prudential - Bottom of ramp for elevator,,3,,Boston,Prudential,,,,,1
577,,,,42.27135,0,-71.082411,Boston,River St opp Leahaven Rd,River Street,,,3.0,1
9235,,Highland Avenue East,,42.469127,0,-71.061085,Melrose,Main St @ E Highland Ave,Main Street,,,3.0,1
node-spmnl-sfarepaid,,,Science Park/West End - Paid side of fare gates,42.36677,3,-71.06786,Boston,Science Park/West End,,,,,1
5486,,Edith Avenue,,42.417359,0,-71.046423,Everett,Broadway @ Edith Ave,Broadway,,,3.0,1
5345,,Clayton Street,,42.422736,0,-71.061542,Malden,Ferry St opp Clayton St,Ferry Street,,,3.0,1
1751,,Bickford Avenue,,42.326316,0,-71.101936,Boston,106 Heath St opp Bickford Ave,Heath Street,,,3.0,1
895,,N Street,,42.335747,0,-71.031442,Boston,E Broadway @ N St,East Broadway,,,3.0,1
832,,Washington Street,,42.260206,0,-71.158675,Boston,Stimson St @ Washington St,Stimson Street,,,3.0,1
5886,,McClellan Highway,,42.39341,0,-71.011238,Boston,Waldemar Ave @ McClellan Hwy,Waldemar Avenue,,,3.0,1
1886,,Avalon Road,,42.291864,0,-71.15855,Boston,Weld St @ Avalon Rd,Weld Street,,,3.0,1
7954,,Candia Street,,42.425213,0,-71.168978,Arlington,Washington St @ Candia St,Washington Street,,,3.0,1
WR-0062-B2,,East Wyoming Avenue,Wyoming Hill - Commuter Rail Outbound Shuttle - Main St @ E Wyoming Ave,42.451734,0,-71.067239,Melrose,Wyoming Hill - Main St @ E Wyoming Ave,Main Street,,Outbound Shuttle,3.0,1
12852,,Bunker Hill Street,,42.376958,0,-71.05686,Boston,Vine St @ Bunker Hill St,Vine Street,,,3.0,1
1366,,Washington Street,,42.331966,0,-71.113099,Boston,Huntington Ave @ Riverway,Huntington Avenue,,,3.0,1
7583,,,,42.470739,0,-71.032565,Saugus,288 Main St,Main Street,,,3.0,1
3822,,King Avenue,,42.211849,0,-70.96005,Weymouth,Washington St @ King Ave,Washington Street,,,3.0,1
9284,,Vernon Street,,42.515864,0,-71.06573,Wakefield,Cordis St @ Vernon St,Cordis Street,,,3.0,1
5008,,,,42.42142,0,-71.118233,Medford,300 Winthrop St,Winthrop Street,,,3.0,1
4762,,Ellis Road,,42.473552,0,-70.917198,Swampscott,Paradise Rd @ Ellis Rd,Paradise Road,,,3.0,0
2153,,Wheeler Street,,42.388777,0,-71.144816,Cambridge,Concord Ave opp Wheeler St,Concord Avenue,,,3.0,1
8342,,William T Morrissey Boulevard,,42.292588,0,-71.048106,Boston,Freeport St @ Morrisey Blvd,Freeport Street,,,3.0,1
59618,,Cottage Street East,,42.193915,0,-71.200888,Norwood,Washington St @ Cottage St,Washington Street,,,3.0,1
node-105-crplatform,,,Oak Grove - Bottom of Commuter Rail escalator,42.437152,3,-71.070744,Malden,Oak Grove,,,,,1
8482,,Shumaker Path,,42.294193,0,-71.189216,Newton,Wiswall Rd @ Shumaker Path,Wiswall Road,,,3.0,0
70244,,,Northeastern University - Green Line - Park Street & North,42.340222,0,-71.0892,Boston,Northeastern University,,,Park Street & North,0.0,1
3033,,Furnace Brook Parkway,,42.258215,0,-71.008775,Quincy,Hancock St @ Furnace Brook Pkwy,Hancock Street,,,3.0,1
node-astao-revdoorstair-lobby,,,Assembly - Top of stairs for Revolution Drive,42.392158,3,-71.077406,Somerville,Assembly,,,,,1
door-alfcl-russell,,,Alewife - Russell Field,42.39606,2,-71.139575,Cambridge,Alewife - Russell Field,,,,,1
36495,,Dellmore Road,,42.290215,0,-71.118265,Boston,Hyde Park Ave @ Dellmore Rd,Hyde Park Avenue,,,3.0,1
6369,,Mattakeeset Street,,42.264916,0,-71.099618,Boston,River St @ Caton St,River Street,,,3.0,1
5293,,Eliot Street,,42.408645,0,-71.109479,Medford,Main St @ Windsor Rd,Main Street,,,3.0,0
70233,,,Dean Road - Green Line - (C) Cleveland Circle,42.337807,0,-71.141753,Brookline,Dean Road,,,Cleveland Circle,0.0,2
node-dwnxg-macysramp-lobby,,,Downtown Crossing - Bottom of ramp between Macy's and Summer Street Concourse,,3,,Boston,Downtown Crossing,,,,,1
9070218,,Saint Paul Street,Saint Paul Street - Green Line Park Street & North Shuttle - 1253 Beacon St,42.34282,0,-71.11804,Brookline,Saint Paul Street - 1253 Beacon St,Beacon Street,,Park Street & North Shuttle,3.0,1
7784,,Graymore Road,,42.40782,0,-71.252341,Waltham,Lincoln St opp Graymore Rd,Lincoln Street,,,3.0,1
847,,Virgil Road,,42.283852,0,-71.161535,Boston,Lagrange St opp Virgil Rd,La Grange Street,,,3.0,1
9198,,Melrose Street,,42.463112,0,-71.062015,Melrose,Main St @ Melrose St,Main Street,,,3.0,1
14609,,North Shore Avenue,,42.542256,0,-70.919211,Peabody,Margin St @ N Shore Ave,Margin Street,,,3.0,0
111864,,Coburn Street,,42.287264,0,-70.876468,Hull,Nantasket Ave from Kenburma St to A St (FLAG),Nantasket Avenue,,,3.0,1
70168,,,Newton Highlands - Green Line - Park Street & North,42.322738,0,-71.205082,Newton,Newton Highlands,,,Park Street & North,0.0,1
109812,,Bartlett Road,,42.372904,0,-70.987328,Winthrop,Pleasant St @ Bartlett Rd,Pleasant Street,,,3.0,1
place-wrnst,"Commonwealth Ave and Warren St, Boston, MA",,,42.348343,1,-71.140457,Boston,Warren Street,,,,,2
4793,,Lafayette Street,,42.49383,0,-70.870158,Marblehead,Humphrey St @ Lafayette St,Humphrey Street,,,3.0,1
497,,Milton Avenue,,42.278267,0,-71.075075,Boston,Gallivan Blvd @ Milton Ave,Gallivan Boulevard,,,3.0,1
WR-0205-B1,,Tewksbury Street,Ballardvale - Commuter Rail Boston Shuttle - Andover St @ Tewksbury St,42.626816,0,-71.160209,Andover,Ballardvale - Andover St @ Tewksbury St,Andover Street,,Boston Shuttle,3.0,1
5519,,Marie Avenue,,42.416054,0,-71.047355,Everett,Broadway @ Coburn Terr,Broadway,,,3.0,1
1373,,Stedman Street,,42.344321,0,-71.124866,Brookline,Harvard St @ Stedman St,Harvard Street,,,3.0,1
node-rbmnl-farepaid,,,Revere Beach - Paid side of fare gates,42.407872,3,-70.992533,Revere,Revere Beach,,,,,1
1850,,Ravenna Road,,42.293107,0,-71.143325,Boston,Weld St @ Ravenna Rd,Weld Street,,,3.0,1
15049,,Boatswain's Way,,42.388457,0,-71.046016,Chelsea,Captains Row @ Boatswains Way,Captain's Row,,,3.0,1
15992,,Common Street,,42.481148,0,-71.100301,Stoneham,Main St opp Common St,Main Street,,,3.0,1
1574,,Moreland Street,,42.322776,0,-71.076673,Boston,Blue Hill Ave @ Moreland St,Blue Hill Avenue,,,3.0,1
109829,,Revere Street,,42.386455,0,-70.975745,Winthrop,Crest Ave @ Highland Ave,Crest Avenue,,,3.0,1
7646,,Walker Street,,42.350969,0,-71.213111,Newton,Washington St @ Walker St,Washington Street,,,3.0,1
door-north-causeways,,,"North Station - Causeway St, Haverhill St",42.365496,2,-71.06049,Boston,"North Station - Causeway St, Haverhill St",,,,,2
6320,,Hasting Lane,,42.421749,0,-71.123131,Medford,High St @ Hastings Ln,High Street,,,3.0,0
node-mvbcl-lewfarepaid,,,Maverick - Paid side of Lewis Mall fare gates,42.368184,3,-71.040301,Boston,Maverick,,,,,1
17288,,Ford Street,,42.476996,0,-70.957149,Lynn,Boston St @ Ford St,Boston Street,,,3.0,1
node-forhl-busfareunpaid,,,Forest Hills - Unpaid side of fare gates,42.300742,3,-71.114062,Boston,Forest Hills,,,,,1
13834,,Charmada Road,,42.187006,0,-70.955457,Weymouth,Opp 561 Main St,Main Street,,,3.0,1
49906,,Orange Street,,42.48467,0,-71.125721,Woburn,Pine St opp Orange St,Pine Street,,,3.0,0
1764,,Watson Street,,42.362536,0,-71.10505,Cambridge,Pearl St @ William St,Pearl Street,,,3.0,1
8607,,Middle Street,,42.435635,0,-71.247174,Lexington,Marrett Rd @ Middle St,Marrett Road,,,3.0,1
5577,,Haskell Avenue,,42.415589,0,-71.033108,Everett,Elm St @ Haskell Ave,Elm Street,,,3.0,1
7967,,Oak Hill Drive,,42.421415,0,-71.162328,Arlington,Summer St opp Oak Hill Dr,Summer Street,,,3.0,1
49704,,School Street,,42.358108,0,-71.060394,Boston,Tremont St @ Beacon St,Tremont Street,,,3.0,1
node-709-plaza,,,Wonderland - Revere Beach Plaza level of Bowdoin-bound platform elevator,42.413786,3,-70.991751,Revere,Wonderland,,,,,1
2402,,Bartlett Street,,42.39424,0,-71.101882,Somerville,Medford St @ Bartlett St,Medford Street,,,3.0,1
3573,,Playground Road,,42.232863,0,-70.880118,Hingham,Main St @ Playground,Main Street,,,3.0,1
28742,,Foley Street,,42.392526,0,-71.08034,Somerville,Grand Union Blvd @ Foley St,Grand Union Boulevard,,,3.0,1
78216,,,,42.343383,0,-71.236076,Newton,1600 Washington St,Washington Street,,,3.0,1
3258,,Darrow Street,,42.265684,0,-70.959414,Quincy,Sea St @ Darrow St,Sea Street,,,3.0,0
3485,,Centre Street,,42.260235,0,-71.050876,Milton,Adams St @ Centre St,Adams Street,,,3.0,1
2187,,Griswold Street,,42.390896,0,-71.156152,Cambridge,799 Concord Ave,Concord Avenue,,,3.0,1
4034,,Town Street,,42.206698,0,-71.022074,Braintree,738 Granite St opp Town St,Granite Street,,,3.0,1
6749,,Thorpe Road,,42.466658,0,-70.980598,Lynn,Holyoke St @ Thorpe Rd,Holyoke Street,,,3.0,0
3831,,Southern Artery,,42.24345,0,-70.98392,Quincy,South St @ Southern Artery,South Street,,,3.0,1
6114,,Linden Street,,42.504919,0,-70.891175,Salem,Loring Ave @ Linden St,Loring Avenue,,,3.0,0
76597,,Pine Street,,42.371852,0,-71.236758,Waltham,Moody St @ Pine St,Moody Street,,,3.0,1
4870,,,,42.483844,0,-70.89883,Swampscott,Salem St @ Sunbeam Ln,Salem Street,,,3.0,1
door-chncl-foresthills,,,"Chinatown - Washington St, Essex St",42.352457,2,-71.062678,Boston,"Chinatown - Washington St, Essex St",,,,,2
1430,,Cambridge Street,,42.375048,0,-71.11234,Cambridge,Felton St @ Cambridge St,Felton Street,,,3.0,1
109901,,Beach Road,,42.380764,0,-70.974996,Winthrop,Shirley St @ Beach Rd,Shirley Street,,,3.0,1
7525,,Talbot Street,,42.462924,0,-71.018679,Saugus,Vine St @ Talbot St,Vine Street,,,3.0,0
1089,,Strathmore Road,,42.340595,0,-71.155272,Boston,Chestnut Hill Ave @ South St,Chestnut Hill Avenue,,,3.0,1
7755,,Hall Street,,42.367585,0,-71.235543,Waltham,High St @ Hall St,High Street,,,3.0,1
12648,,Allen Street,,42.412312,0,-71.145561,Arlington,Broadway @ Allen St,Broadway,,,3.0,1
node-aport-bremenstairs-bridge,,,Airport - Top of stairs on unpaid Bremen Street side,42.374438,3,-71.030366,Boston,Airport,,,,,1
4047,,McDevitt Road,,42.178233,0,-71.030944,Randolph,North St @ McDevitt Rd,North Street,,,3.0,1
70249,,,Brigham Circle - Green Line - (E) Heath Street,42.334331,0,-71.104487,Boston,Brigham Circle,,,Heath Street,0.0,1
DB-2249-B2,,Vaughan Avenue,Four Corners/Geneva - Outbound Shuttle - Opp 198 Geneva Ave,42.305093,0,-71.076623,Boston,Four Corners/Geneva - Opp 198 Geneva Ave,Geneva Avenue,,Outbound Shuttle,3.0,1
70246,,,Museum of Fine Arts - Green Line - Park Street & North,42.338017,0,-71.094682,Boston,Museum of Fine Arts,,,Park Street & North,0.0,1
place-FR-0394,"Ayer Rd and Phoenix St, Shirley, MA 01464",,,42.545089,1,-71.648004,Shirley,Shirley,,,,,2
7602,,Old South Street,,42.364452,0,-71.25812,Waltham,South St opp Brandeis Univ Entrance,South Street,,,3.0,0
node-wondl-oceanaveingress,,,Wonderland - Bowdoin-bound platform end of Revere Beach Plaza,42.413704,3,-70.991872,Revere,Wonderland,,,,,1
70204,,,Haymarket - Green Line - Copley & West,42.363021,0,-71.05829,Boston,Haymarket,,,Copley & West,0.0,1
1189,,Cambridge Street,,42.361317,0,-71.117952,Boston,Soldiers Field Rd @ Cambridge St,Ramp - Western Ave To Soldiers Field Rd Eastbound,,,3.0,2
node-rcmnl-stairs-platform,,,Roxbury Crossing - Bottom of stairs,42.331167,3,-71.095731,Boston,Roxbury Crossing,,,,,1
568,,Blue Hill Avenue,,42.308694,0,-71.082804,Boston,Geneva Ave @ Blue Hill Ave,Geneva Avenue,,,3.0,1
29014,,,Sullivan Square - Lower Berth 14,42.383917,0,-71.076089,Boston,Sullivan Square,Busway,,Lower Berth 14,3.0,1
21174,,Massachusetts Avenue,,42.358309,0,-71.098379,Cambridge,Vassar St opp Pacific St Extension,Vassar Street,,,3.0,1
4042,,Broad Street,,42.188177,0,-71.029915,Randolph,North St @ Broad St,North Street,,,3.0,1
node-148-platform,,,Tufts Medical Center - Bottom of Escalator 148,,3,,Boston,Tufts Medical Center,,,,,1
node-harsq-sbramp-platform,,,Harvard - Ramp between Ashmont/Braintree platform and fare gates,,3,,Cambridge,Harvard,,,,,1
1484,,East Cottage Street,,42.321419,0,-71.072135,Boston,Dudley St @ E Cottage St,Dudley Street,,,3.0,1
1569,,Quincy Street,,42.314494,0,-71.078817,Boston,Blue Hill Ave @ Quincy St,Blue Hill Avenue,,,3.0,1
4949,,Roy Croft Road,,42.535353,0,-70.916697,Peabody,Margin St @ Roycroft Rd,Margin Street,,,3.0,0
3605,,Shipyard Drive,,42.249358,0,-70.916949,Hingham,319 Lincoln St,Lincoln Street,,,3.0,1
WML-0035-B,,,Boston Landing - Commuter Rail Shuttle,42.357313,0,-71.141258,Boston,Boston Landing,,,Commuter Rail Shuttle,3.0,1
3785,,Water Street,,42.24377,0,-70.997708,Quincy,Quincy Ave @ Water St,Quincy Avenue,,,3.0,1
393,,Woodbine Street,,42.319956,0,-71.08138,Boston,Warren St @ Woodbine St,Warren Street,,,3.0,1
3110,,Belmont Street,,42.268246,0,-71.030307,Quincy,Wilson Ave @ Belmont St,Wilson Avenue,,,3.0,1
1292,,Beacon Street,,42.339199,0,-71.135066,Brookline,Washington St @ Beacon St,Washington Street,,,3.0,1
7547,,Blue Hill Avenue,,42.443002,0,-71.029982,Malden,665 Broadway,Broadway,,,3.0,1
node-419-middle,,,South Station - Bottom of Escalator 419,,3,,Boston,South Station,,,,,1
2363,,,,42.416863,0,-71.147613,Arlington,Medford St @ Lewis Ave,Medford Street,,,3.0,1
node-brntn-crstairs-bottom,,,Braintree - Bottom of Commuter Rail platform stairs,42.207631,3,-71.001345,Braintree,Braintree,,,,,1
49915,,Eastern Avenue,,42.481552,0,-71.144219,Woburn,Montvale Ave opp Eastern Ave,Montvale Avenue,,,3.0,1
12301,,Upland Road,,42.388229,0,-71.119545,Cambridge,Massachusetts Ave @ Upland Rd,Massachusetts Avenue,,,3.0,1
node-715-street,,,Orient Heights - Bottom of Elevator 715,42.386795,3,-71.004704,Boston,Orient Heights,,,,,1
9133,,Fisher Terrace,,42.497441,0,-71.155907,Woburn,Main St @ Fisher Terr,Main Street,,,3.0,1
98618,,Stone Street,,42.145831,0,-71.25294,Walpole,Main St @ Stone St,Main Street,,,3.0,1
32619,,Ellis Avenue,,42.210459,0,-71.191353,Norwood,83 Washington St opp Ellis Ave,Washington Street,,,3.0,1
3520,,Fowler Street,,42.249568,0,-70.992055,Quincy,Washington St @ Fowler St,Washington Street,,,3.0,0
node-927-rl,,,South Station - Bottom of Elevator 927,,3,,Boston,South Station,,,,,1
node-417-platform,,,Courthouse - Bottom of escalator from outbound platform to exit-only gates,,3,,Boston,Courthouse,,,,,1
node-pktrm-tremstairfare-paid,,,Park Street - Paid side of fare gates,,3,,Boston,Park Street,,,,,1
9226,,Grove Street,,42.453018,0,-71.066447,Melrose,Main St @ Grove St,Main Street,,,3.0,1
node-river-fareunpaid,,,Riverside - Unpaid side of fare gates,42.337352,3,-71.252685,Newton,Riverside,,,,,1
7644,,Court Street,,42.353025,0,-71.201322,Newton,Washington St @ Court St,Washington Street,,,3.0,1
23537,,Gould Road,,42.409072,0,-71.159217,Arlington,Pleasant St @ Kensington St,Pleasant Street,,,3.0,1
4061,,Cottage Street,,42.165905,0,-71.038501,Randolph,North St @ Mill St,North Street,,,3.0,1
4089,,Purgatory Road,,42.22958,0,-71.030926,Quincy,Willard St @ Thistle Rd,Willard Street,,,3.0,1
9070056,,Winthrop Avenue,Beachmont - Blue Line Wonderland Shuttle - Bennington St @ Winthrop Ave,42.397243,0,-70.991903,Revere,Beachmont - Bennington St @ Winthrop Ave,Bennington Street,,Wonderland Shuttle,3.0,1
4229,,North Main Street,,42.137248,0,-71.040192,Randolph,N Main St @ Langley Rd,South Main Street,,,3.0,1
792,,Penfield Street,,42.286241,0,-71.135028,Boston,Belgrade Ave @ Penfield St,Belgrade Avenue,,,3.0,1
GB-0222,,,Prides Crossing - Commuter Rail,42.559446,0,-70.825541,Beverly,Prides Crossing,,,Commuter Rail,2.0,2
7883,,The Great Road,,42.491701,0,-71.279122,Bedford,South Rd @ Great Rd,South Road,,,3.0,1
1141,,New Heath Street,,42.326102,0,-71.096534,Boston,Centre St opp New Heath St,Centre Street,,,3.0,1
node-mlmnl-fareunpaid,,,Malden Center - Unpaid side of fare gates,42.426814,3,-71.074214,Malden,Malden Center,,,,,1
4925,,Hingston Street,,42.520137,0,-70.938798,Peabody,Washington St @ Hingston St,Washington Street,,,3.0,1
place-NEC-1659,"1011 Ten Rod Rd, North Kingstown, RI",,,41.581289,1,-71.491147,North Kingstown,Wickford Junction,,,,,1
node-coecl-ebfareunpaid,,,Copley - Unpaid side of fare gates,42.349835,3,-71.078072,Boston,Copley,,,,,1
door-shmnl-savin,,,Savin Hill - Savin Hill Ave,42.311299,2,-71.053302,Boston,Savin Hill - Savin Hill Ave,,,,,1
49846,,,,42.50372,0,-71.239692,Bedford,MITRE Corp Inner Rd,,,,3.0,1
node-smmnl-sbstairs-platform,,,Shawmut - Bottom of Ashmont stairs,42.293212,3,-71.065922,Boston,Shawmut,,,,,1
70242,,,Symphony - Green Line - Park Street & North,42.342687,0,-71.085056,Boston,Symphony,,,Park Street & North,0.0,2
1427,,Highland Avenue,,42.37428,0,-71.104467,Cambridge,Cambridge St opp Highland Ave - Cambridge Hospital,Cambridge Street,,,3.0,1
node-nqncy-sfareunpaid,,,North Quincy - Unpaid side of Squantum Street fare gates,42.275154,3,-71.029517,Quincy,North Quincy,,,,,1
GB-0316-B0,,,Gloucester - Outbound Shuttle,42.616435,0,-70.667627,Gloucester,Gloucester,Railroad Avenue,,Outbound Shuttle,3.0,1
MM-0023-S,,,JFK/UMass - Commuter Rail - Track 1 (All Trains),42.320685,0,-71.052391,Boston,JFK/UMass,,1,Track 1 (All Trains),2.0,1
70180,,,Brookline Village - Green Line - Park Street & North,42.332614,0,-71.116751,Brookline,Brookline Village,,,Park Street & North,0.0,1
5240,,Courtland Road,,42.286305,0,-71.093576,Boston,Morton St @ Courtland Rd,Morton Street,,,3.0,1
8819,,Edenfield Avenue,,42.370766,0,-71.194738,Watertown,Main St @ Edenfield Ave,Main Street,,,3.0,1
3938,,River Street,,42.21969,0,-71.003573,Braintree,Washington St @ River St,Washington Street,,,3.0,1
6573,,,,42.326594,0,-71.111284,Boston,S Huntington Ave @ VA Hospital,South Huntington Avenue,,,3.0,1
8855,,Mountain Street,,42.514716,0,-71.161074,Woburn,Main St @ Mountain St,Main Street,,,3.0,1
4023,,Davis Road,,42.215992,0,-71.023141,Braintree,Granite St @ Davis Rd,Granite Street,,,3.0,1
88171,,Green Street,,42.368712,0,-71.189316,Watertown,Main St opp Green St,Main Street,,,3.0,0
node-396-lobby,,,Aquarium - Bottom of escalator from lobby to State Street,,3,,Boston,Aquarium,,,,,1
7859,,Park Place,,42.378014,0,-71.235172,Waltham,School St @ Lexington St,School Street,,,3.0,1
127,,,,42.325633,0,-71.065816,Boston,Massachusetts Ave @ Newmarket Station,Massachusetts Avenue,,,3.0,1
node-state-cityhall-fareunpaid,,,State - Unpaid side of fare gates,,3,,Boston,State,,,,,1
70510,,,Ball Square - Green Line - Copley & West,42.400103,0,-71.111207,Medford,Ball Square,,,Copley & West,0.0,1
4602,,Dearborn Street,,42.528164,0,-70.902835,Salem,North St @ Dearborn St,North Street,,,3.0,1
109809,,Woodside Avenue,,42.375909,0,-70.987693,Winthrop,Pauline St opp Woodside Ave,Pauline Street,,,3.0,1
10820,,,,42.275977,0,-71.171522,Boston,Veterans Hospital West Roxbury,,,,3.0,1
node-307-lobby,,,Sullivan Square - Top of Escalator 307,,3,,Boston,Sullivan Square,,,,,1
place-wlsta,"90 Woodbine St, Quincy, MA 02171",,,42.266514,1,-71.020337,Quincy,Wollaston,,,,,1
3479,,,,42.265999,0,-71.066035,Milton,191 Adams St,Adams Street,,,3.0,1
3934,,Robinson Avenue,,42.212779,0,-71.004498,Braintree,Washington St @ Sherbrooke Ave,Washington Street,,,3.0,1
2349,,Lake Street,,42.403357,0,-71.159784,Belmont,Cross St @ Gilmore Rd,Cross Street,,,3.0,1
5019,,Francesca Avenue,,42.399088,0,-71.11951,Somerville,College Ave @ Francesca Ave,College Avenue,,,3.0,1
9122,,Green Street,,42.474754,0,-71.149603,Woburn,Main St @ Green St,Main Street,,,3.0,1
1444,,Elm Street,,42.362711,0,-71.155659,Watertown,Arsenal St @ Elm St,Arsenal Street,,,3.0,1
70187,,,Fenway - Green Line - (D) Riverside,42.345029,0,-71.104968,Boston,Fenway,,,Riverside,0.0,1
2360,,Wachusett Avenue,,42.413325,0,-71.18202,Arlington,Park Ave opp Wachusett Ave,Park Avenue,,,3.0,0
8442,,Larchmont Lane,,42.45818,0,-71.237183,Lexington,Bedford St @ Larchmont Ln,Bedford Street,,,3.0,1
2459,,Mossland Street,,42.387206,0,-71.116555,Somerville,Somerville Ave @ Mossland St,Somerville Avenue,,,3.0,1
2446,,Bishop R Allen Drive,,42.366394,0,-71.103015,Cambridge,Prospect St @ Bishop Allen Dr,Prospect Street,,,3.0,1
4801,,Spring Street,,42.502769,0,-70.855517,Marblehead,Pleasant St @ Essex St,Pleasant Street,,,3.0,1
9070220,,,Coolidge Corner - Green Line Park Street & North Shuttle,42.34182,0,-71.121669,Brookline,Coolidge Corner,,,Park Street & North Shuttle,3.0,1
2275,,Thorndike Street,,42.402768,0,-71.138361,Arlington,Massachusetts Ave @ Teel St,Massachusetts Avenue,,,3.0,1
109893,,Woodside Avenue,,42.375811,0,-70.987603,Winthrop,Pauline St @ Woodside Ave,Pauline Street,,,3.0,1
109844,,Pontos Street,,42.36538,0,-70.96932,Winthrop,Shirley St @ Pontos St,Shirley Street,,,3.0,1
7332,,Harris Road,,42.500133,0,-70.975966,Lynn,Lynnfield St @ Harris Rd,Lynnfield Street,,,3.0,1
9070111,,South Street,South Street - Green Line Boston College Shuttle,42.339669,0,-71.157486,Boston,South Street - Commonwealth Ave @ South St,Commonwealth Avenue,,Boston College Shuttle - Commonwealth Ave opp South St,3.0,1
9070090,,Red Auerbach Way,North Station - Lechmere & North/Oak Grove Shuttle - Nashua St @ Red Auerbach Way,42.36555,0,-71.06405,Boston,North Station - Nashua St @ Red Auerbach Way,Nashua Street,,Lechmere & North/Oak Grove Shuttle,3.0,1
1500,,Howard Avenue,,42.320062,0,-71.071274,Boston,Dudley St @ Howard Ave,Dudley Street,,,3.0,1
350,,Greenmount Street,,42.309828,0,-71.057855,Boston,Dorchester Ave @ Dewar St,Dorchester Avenue,,,3.0,1
3881,,Peach Street,,42.185997,0,-71.008626,Braintree,Washington St opp Peach St,Washington Street,,,3.0,1
2250,,Daniels Street,,42.424123,0,-71.17941,Arlington,Massachusetts Ave @ Daniels St,Massachusetts Avenue,,,3.0,1
node-334-platform,,,Braintree - Top of Red Line platform downward escalator,42.207274,3,-71.001694,Braintree,Braintree,,,,,1
3,"Washington St and Melnea Cass Blvd, Roxbury, MA",Melnea Cass Boulevard,Washington St @ Melnea Cass Blvd - Silver Line - South Station/Downtown Crossing,42.333021,0,-71.080799,Boston,Washington St @ Melnea Cass Blvd - Silver Line,Washington Street,,South Station/Downtown Crossing,3.0,1
door-knncl-sbsecond,,,"Kendall/MIT - Main St, Third St",42.362232,2,-71.084862,Cambridge,"Kendall/MIT - Main St, Third St",,,,,2
node-418-entrance,,,Courthouse - Top of escalator from lobby to Fan Pier Boulevard,,3,,Boston,Courthouse,,,,,1
node-394-platform,,,Aquarium - Bottom of escalator from Wonderland platform to State Street,,3,,Boston,Aquarium,,,,,1
5264,,Salem Street,,42.423833,0,-71.089799,Medford,Fellsway W @ Salem St,Fellsway West,,,3.0,1
4373,,Westvale Road,,42.254584,0,-71.049864,Milton,Edge Hill Rd opp Westvale Rd,Edgehill Road,,,3.0,1
2845,,Baldwin Street,,42.382401,0,-71.069733,Boston,Bunker Hill St @ Baldwin St,Bunker Hill Street,,,3.0,1
1506,,Trull Street,,42.312677,0,-71.064654,Boston,Hancock St @ Trull St,Hancock Street,,,3.0,1
15038,,Marston Street,,42.412848,0,-71.116526,Medford,George St @ Burget Ave,George Street,,,3.0,1
70226,,,Brandon Hall - Green Line - Park Street & North,42.340038,0,-71.12866,Brookline,Brandon Hall,,,Park Street & North,0.0,2
7545,,Elwell Street,,42.439924,0,-71.032076,Malden,Broadway @ Central Ave,Broadway,,,3.0,1
node-chncl-ogfareunpaid,,,Chinatown - Unpaid side of fare gates,,3,,Boston,Chinatown,,,,,1
1528,,Edgehill Road,,42.327678,0,-71.119349,Brookline,High St opp Edgehill Rd,High Street,,,3.0,1
node-state-wonderlandoldstatestairs-landing,,,"State - Top of stairs between Wonderland platform and State St, Devonshire St",,3,,Boston,State,,,,,1
node-401-top,,,World Trade Center - Top of second World Trade Center entrance escalator,,3,,Boston,World Trade Center,,,,,1
2296,,Norris Street,,42.39586,0,-71.128749,Cambridge,Massachusetts Ave @ Norris St,Massachusetts Avenue,,,3.0,1
5588,,Washington Avenue,,42.412336,0,-71.031519,Chelsea,Woodlawn Ave @ Washington Ave,Woodlawn Avenue,,,3.0,1
55012,,,,42.386901,0,-71.072882,Boston,Alford St @ MBTA Charlestown Garage,Alford Street,,,3.0,1
door-eliot-boylwr,,,Eliot - Boylston St Westbound (Ramp),42.318555,2,-71.21543,Newton,Eliot - Boylston St Westbound (Ramp),,,,,1
904,,Elmwood Street,,42.355599,0,-71.182378,Newton,Park St @ Elmwood St,Park Street,,,3.0,0
7443,,Hamilton Street,,42.460498,0,-70.988635,Lynn,Boston St opp Hamilton St,Boston Street,,,3.0,1
node-wlsta-newprampup-middle,,,Wollaston - Bottom of ramp between Newport Avenue and ramp to lobby,,3,,Quincy,Wollaston,,,,,1
374,,Westcott Street,,42.292015,0,-71.077978,Boston,Talbot Ave @ Talbot Station,Talbot Avenue,,,3.0,1
537,,Gallivan Boulevard,,42.280386,0,-71.0659,Boston,Dorchester Ave @ Gallivan Blvd,Dorchester Avenue,,,3.0,1
109891,,Somerset Avenue,,42.373301,0,-70.989729,Winthrop,Pleasant St @ Somerset Ave,Pleasant Street,,,3.0,0
node-436-lobby,,,Arlington - Top of westbound escalator,,3,,Boston,Arlington,,,,,1
2463,,Clifton Street,,42.393791,0,-71.136374,Cambridge,Rindge Ave @ Clifton St,Rindge Avenue,,,3.0,1
node-andrw-ibramp-top,,,Andrew - Top of inbound lobby ramp,,3,,Boston,Andrew,,,,,1
node-130-lobby,,,Forest Hills - Top of Orange Line platform south escalator,42.300698,3,-71.114218,Boston,Forest Hills,,,,,1
node-kencl-commstair-lobby,,,Kenmore - Bottom of Commonwealth Avenue stairs,,3,,Boston,Kenmore,,,,,1
8230,,Chestnut Avenue,,42.51636,0,-71.207494,Burlington,Cambridge St opp Chestnut Ave,Cambridge Street,,,3.0,1
16459,,Regis Road,,42.269672,0,-71.096952,Boston,Cummins Hwy @ Regis Rd,Cummins Highway,,,3.0,1
270,,P Street,,42.332487,0,-71.027186,Boston,Columbia Rd @ P St,Columbia Road,,,3.0,2
38492,,Elm Lawn Road,,42.226402,0,-70.992802,Braintree,Elm St opp Drinkwater Ave,Elm Street,,,3.0,1
5236,,Glen Road,,42.309638,0,-71.104245,Boston,Washington St @ Glen Rd,Washington Street,,,3.0,1
door-ccmnl-main,,,"Community College - Community College, Rutherford Ave",42.373719,2,-71.0696,Boston,"Community College - Community College, Rutherford Ave",,,,,1
3181,,Mascoma Street,,42.267577,0,-71.03124,Quincy,Wilson Ave @ Mascoma St,Wilson Avenue,,,3.0,1
1184,,Townsend Street,,42.320155,0,-71.094006,Boston,Washington St opp Townsend St,Washington Street,,,3.0,1
632,,Cornell Street,,42.279437,0,-71.135573,Boston,Washington St @ Cornell St,Washington Street,,,3.0,1
node-mgngl-ramp-top,,,Magoun Square - Top of ramp,42.393326,3,-71.106128,Somerville,Magoun Square,,,,,1
15,,Vinton Street,,42.330825,0,-71.054238,Boston,Dorchester St @ Vinton St,Dorchester Street,,,3.0,1
1104,,Vineland Street,,42.357,0,-71.152801,Boston,N Beacon St opp Vineland St,North Beacon Street,,,3.0,1
11735,,Stratton Street,,42.290104,0,-71.082689,Boston,Ames St @ Franklin Field,Ames Street,,,3.0,1
8818,,Waverley Avenue,,42.369972,0,-71.191645,Watertown,Main St @ Waverley Ave,Main Street,,,3.0,1
5911,,Lebanon Street,,42.453508,0,-71.05947,Melrose,Grove St @ Lebanon St,Grove Street,,,3.0,1
17463,,Kennedy Drive,,42.438142,0,-71.029756,Malden,Central Ave @ Kennedy Dr,Central Avenue,,,3.0,1
6517,,,,42.248797,0,-71.138871,Boston,Turtle Pond Pkwy @ Bajko Rink,Turtle Pond Parkway,,,3.0,1
FR-0394,,,Shirley - Commuter Rail,42.545089,0,-71.648004,Shirley,Shirley,,,Commuter Rail,2.0,2
node-bmmnl-farepaid,,,Beachmont - Paid side of fare gates,42.397464,3,-70.992431,Revere,Beachmont,,,,,1
38498,,Marshall Street,,42.21672,0,-70.990871,Braintree,Middle St @ Townsend Ave,Middle Street,,,3.0,1
node-900-lobby,,,North Quincy - Top of elevator between platform and Squantum Street lobby,42.275398,3,-71.029739,Quincy,North Quincy,,,,,1
71618,,Sumner Street,,42.256336,0,-71.162993,Dedham,38 Washington St opp Sumner St,Washington Street,,,3.0,1
33761,,Carruth Street,,42.281631,0,-71.059982,Boston,Gallivan Blvd opp Carruth St,Gallivan Boulevard,,,3.0,0
7844,,Brown Street,,42.366263,0,-71.243254,Waltham,Crescent St @ Brown St,Crescent Street,,,3.0,1
9170153,,Massachusetts Avenue,Hynes - Green Line Westbound Shuttle - Commonwealth Ave @ Massachusetts Ave,42.34937,0,-71.088504,Boston,Hynes - Commonwealth Ave @ Massachusetts Ave,Commonwealth Avenue,,Westbound Shuttle,3.0,1
7740,,Waltham Street,,42.360413,0,-71.222829,Newton,Crafts St @ Waltham St,Crafts Street,,,3.0,1
node-906-passage,,,"Haymarket - Bottom of elevator between Green Line, busway and Orange Line passageway",,3,,Boston,Haymarket,,,,,1
door-bvmnl-boylston,,,"Brookline Village - Buses, Route 9",42.33266,2,-71.116542,Brookline,"Brookline Village - Buses, Route 9",,,,,1
78452,,Moody Street,,42.367548,0,-71.237722,Waltham,Maple St @ Moody St,Maple Street,,,3.0,1
5392,,Pelham Street,,42.420159,0,-71.061447,Malden,Cross St @ Pelham St,Cross Street,,,3.0,1
WML-0125-02,,,Wellesley Farms - Commuter Rail - Track 2,42.323608,0,-71.272288,Wellesley,Wellesley Farms,,2,Track 2,2.0,2
2574,,Summer Street,,42.38163,0,-71.098527,Somerville,51 Bow St,Bow Street,,,3.0,0
1709,,Callender Street,,42.289639,0,-71.089874,Boston,Blue Hill Ave @ Greenock St,Blue Hill Avenue,,,3.0,1
4222,,Woodland Parkway,,42.150475,0,-71.04427,Randolph,S Main St @ Stoughton St,South Main Street,,,3.0,1
5783,,Nahant Avenue,,42.408817,0,-70.99548,Revere,Beach St opp Nahant Ave,Beach Street,,,3.0,1
19,,Old Harbor Street,,42.334495,0,-71.047576,Boston,Dorchester St @ Old Harbor St,Dorchester Street,,,3.0,1
place-kencl,"Commonwealth Ave and Kenmore St, Boston, MA 02215",,,42.348949,1,-71.095169,Boston,Kenmore,,,,,1
5276,,Medford Street,,42.41817,0,-71.085794,Malden,Fellsway @ Medford St,Fellsway,,,3.0,0
70087,,,Savin Hill - Red Line - Ashmont,42.310603,0,-71.053678,Boston,Savin Hill,,,Ashmont,1.0,1
6613,,Foxhill Road,,42.428857,0,-70.935193,Nahant,Opp 50 Castle Rd,Castle Road,,,3.0,1
place-NB-0072,"35 Colbert St, West Roxbury, MA 02132",,,42.286588,1,-71.145557,Boston,Bellevue,,,,,1
2677,,Cedar Street,,42.392088,0,-71.11225,Somerville,Highland Ave @ Cedar St,Highland Avenue,,,3.0,1
node-978-lobby,,,Park Street - Bottom of elevator between Boston Common and Copley & West platform,42.356355,3,-71.062692,Boston,Park Street,,,,,1
1660,,Davis Avenue,,42.423843,0,-71.152874,Arlington,Mystic St @ Davis Ave,Mystic Street,,,3.0,1
door-lech-firstracks,,,"Lechmere - Busway, North First St",42.3717,2,-71.076726,Cambridge,"Lechmere - Busway, North First St",,,,,1
1296,,Euston Road,,42.344593,0,-71.144416,Boston,Washington St opp Euston Rd,Washington Street,,,3.0,1
4578,,,,42.524241,0,-70.953577,Peabody,Centennial Dr opp Rt128 Ramp,Centennial Drive,,,3.0,1
1382,,,,42.341882,0,-71.072691,Boston,43 W Dedham St,West Dedham Street,,,3.0,1
node-nqncy-nhfarepaid,,,"North Quincy - Paid side of Hancock Street, Newport Avenue fare gates",42.27643,3,-71.030873,Quincy,North Quincy,,,,,1
5396,,Bellingham Avenue,,42.41472,0,-71.06424,Everett,Main St @ Peirce Ave,Main Street,,,3.0,1
4865,,Humphrey Street,,42.476289,0,-70.892518,Swampscott,Salem St @ Humphrey St,Salem Street,,,3.0,1
node-757-entrance,,,Kendall/MIT - Top of Elevator 757 for Ashmont/Braintree platform,42.36211,3,-71.086174,Cambridge,Kendall/MIT,,,,,1
3574,,Common Street,,42.231144,0,-70.879979,Hingham,Main St @ Firehouse,Main Street,,,3.0,1
2293,,Park Avenue,,42.424328,0,-71.182803,Arlington,Massachusetts Ave @ Park Ave,Massachusetts Avenue,,,3.0,1
9170120,,Washington Street,Washington Street - Green Line Park Street & North Shuttle - Commonwealth Ave @ Washington St,42.343435,0,-71.142732,Boston,Washington Street - Commonwealth Ave @ Washington St,Commonwealth Avenue,,Park Street & North Shuttle,3.0,1
node-143-lobby,,,Back Bay - Top of Tracks 1-3 up escalator,,3,,Boston,Back Bay,,,,,1
268,,O Street,,42.331676,0,-71.029247,Boston,Columbia Rd @ O St,Columbia Road,,,3.0,2
2129,,Slade Street,,42.382659,0,-71.180186,Belmont,Trapelo Rd @ Slade St,Trapelo Road,,,3.0,1
5277,,Malden Street,,42.419695,0,-71.086004,Malden,Fellsway @ Malden St,Fellsway,,,3.0,0
BNT-0000-05,,,North Station - Commuter Rail - Track 5,42.366618,0,-71.062601,Boston,North Station,,5,Commuter Rail - Track 5,2.0,1
2410,,Winthrop Street,,42.411509,0,-71.121651,Medford,Boston Ave @ Winthrop St,Boston Avenue,,,3.0,1
WR-0067,,,Melrose/Cedar Park - Commuter Rail,42.458768,0,-71.069789,Melrose,Melrose/Cedar Park,,,Commuter Rail,2.0,2
439,,Capen Street,,42.284214,0,-71.081358,Boston,247 Norfolk St opp Capen St,Norfolk Street,,,3.0,1
3348,,Rogers Street,,42.249679,0,-71.035179,Quincy,Willard St @ Rogers St,Willard Street,,,3.0,1
68618,,Bryant Street,,42.245904,0,-71.174729,Dedham,450 Washington St,Washington Street,,,3.0,1
8546,,Indian Ridge Road,,42.29739,0,-71.185245,Newton,Wiswall Rd @ Indian Ridge Rd,Wiswall Road,,,3.0,1
3981,,,,42.129761,0,-71.008895,Holbrook,778 S Franklin St,South Franklin Street,,,3.0,1
2840,,Baldwin Street,,42.38125,0,-71.070852,Boston,Main St @ Baldwin St,Main Street,,,3.0,1
16881,,Ray Avenue,,42.481971,0,-71.18724,Burlington,26 Cambridge St @ Cafe Escadrille,Cambridge Street,,,3.0,1
7885,,Hartford Street,,42.487985,0,-71.27875,Bedford,South Rd opp Hartford St,South Road,,,3.0,1
70198,,,Park Street - Green Line - (D) Riverside,42.356395,0,-71.062424,Boston,Park Street,,D,Riverside,0.0,1
node-sstat-400stair-rl,,,South Station - Bottom of stairs for Ashmont/Braintree,,3,,Boston,South Station,,,,,1
29003,,,Sullivan Square - Upper Berth 3,42.384266,0,-71.076511,Boston,Sullivan Square,Busway,,Upper Berth 3,3.0,1
2189,,Washington Street,,42.386639,0,-71.161007,Belmont,Bright Rd @ Washington St,Bright Road,,,3.0,1
4709,,,,42.440343,0,-70.967824,Revere,Point of Pines,,,,3.0,1
NB-0064-B1,,,Roslindale Village - Commuter Rail Boston Shuttle,42.286684,0,-71.13103,Boston,Roslindale Village,,,Boston Shuttle,3.0,1
node-state-cityhall-farepaid,,,State - Paid side of fare gates,,3,,Boston,State,,,,,1
10413,,Dixwell Street,,42.314898,0,-71.097377,Boston,Columbus Ave @ Weld Ave - Egleston Sq,Columbus Avenue,,,3.0,1
278,,L Street,,42.331504,0,-71.035149,Boston,E 8th St @ L St,East Eighth Street,,,3.0,1
3687,,Cottage Street,,42.216401,0,-70.927739,Weymouth,Broad St @ Cottage St,Broad Street,,,3.0,1
2885,,Billings Avenue,,42.408486,0,-71.104066,Medford,Mystic Ave opp Billings Ave,Mystic Avenue,,,3.0,1
NEC-1969-04,,,Attleboro - Commuter Rail - Track 4 (Boston),41.940739,0,-71.285094,Attleboro,Attleboro,,4,Track 4 (Boston),2.0,1
3979,,Laurel Park,,42.134006,0,-71.00752,Holbrook,S Franklin St @ Laurel Pk,South Franklin Street,,,3.0,1
614,,Rockingham Avenue,,42.264139,0,-71.154223,Boston,Washington St @ Rockingham Ave,Washington Street,,,3.0,1
node-kencl-beacstair-lobby,,,Kenmore - Bottom of Beacon Street stairs,,3,,Boston,Kenmore,,,,,1
16971,,Moran Avenue,,42.511169,0,-71.201089,Burlington,Cambridge St opp Terry Ave,Cambridge Street,,,3.0,1
3271,,Rockland Street,,42.26572,0,-70.960097,Quincy,Sea St @ Winthrop St,Sea Street,,,3.0,1
node-harsq-yardstair-lobby,,,Harvard - Bottom of stairs for Harvard Yard,42.374357,3,-71.118681,Cambridge,Harvard,,,,,1
137,,Rivermoor Street,,42.278907,0,-71.175492,Boston,Charles Park Rd @ Rivermoor St,Charles Park Road,,,3.0,1
769,,Glenhaven Road,,42.270185,0,-71.161904,Boston,Centre St opp Glenhaven Rd,Centre Street,,,3.0,1
2595,,Bow Street,,42.381176,0,-71.099677,Somerville,Somerville Ave @ Carlton St,Somerville Avenue,,,3.0,1
5842,,Byron Street,,42.383407,0,-71.016436,Boston,Bennington St @ Byron St,Bennington Street,,,3.0,1
5967,,Glen Rock Road,,42.439466,0,-71.071432,Malden,349 Washington St,Washington Street,,,3.0,1
5440,,Hyde Street,,42.431517,0,-71.051995,Malden,468 Salem St opp Dell St,Salem Street,,,3.0,1
node-bbsta-2stairs-lobby,,,Back Bay - Top of Track 2 stairs,,3,,Boston,Back Bay,,,,,1
4076,,Broad Street,,42.188018,0,-71.029746,Randolph,North St opp Broad St,North Street,,,3.0,1
1720,,Fairway Street,,42.26876,0,-71.093955,Boston,Blue Hill Ave @ Mattapan Sq,Blue Hill Avenue,,,3.0,1
412,,Crawford Street,,42.310421,0,-71.083262,Boston,Warren St @ Crawford St,Warren Street,,,3.0,1
8168,,Page Road,,42.353479,0,-71.208007,Newton,Walnut St @ Page Rd,Walnut Street,,,3.0,1
node-pktrm-tremefare-paid,,,Park Street - Paid side of exit-only gate,,3,,Boston,Park Street,,,,,1
7205,,Clairmont Street,,42.487477,0,-70.957503,Lynn,Euclid Ave @ Clairmont St,Euclid Avenue,,,3.0,1
node-aqucl-nstatestairs-landingtop,,,Aquarium - Landing for stairs for State Stree north,,3,,Boston,Aquarium,,,,,1
11780,,,,42.337969,0,-71.102457,Boston,Ave Louis Pasteur @ Longwood Ave,Avenue Louis Pasteur,,,3.0,1
6161,,Oak View Avenue,,42.490025,0,-70.89642,Salem,Opp 446 Loring Ave,Loring Avenue,,,3.0,1
2790,,,,42.267019,0,-71.130262,Boston,347 West St,West Street,,,3.0,1
node-knncl-sbmain-entrance,,,Kendall/MIT - Top of stairs between Main St and Ashmont/Braintree platform,42.362292,3,-71.08615,Cambridge,Kendall/MIT,,,,,1
node-cntsq-prospectstair-platform,,,Central - Bottom of stairs for Prospect St,,3,,Cambridge,Central,,,,,1
13826,,,,42.183715,0,-70.955424,Weymouth,Opp 650 Main St,Main Street,,,3.0,1
1856,,Weld Street,,42.294728,0,-71.130566,Boston,170 Walter St,Walter Street,,,3.0,1
5269,,Myrtle Street,,42.416171,0,-71.084902,Medford,Fellsway @ Myrtle St,Fellsway,,,3.0,0
11599,,Thompson Place,,42.352561,0,-71.046914,Boston,Seaport Blvd @ Fan Pier Blvd,Seaport Boulevard,,,3.0,1
111848,,Water Street,,42.274431,0,-70.860687,Hull,Nantasket Ave from Wash Blvd to Water St (FLAG),Nantasket Avenue,,,3.0,1
1308,,Green Street,,42.342499,0,-71.121845,Brookline,Harvard St @ Beacon St,Harvard Street,,,3.0,1
571,,Adams Street,,42.272456,0,-71.068104,Boston,Dorchester Ave @ Washington St,Dorchester Avenue,,,3.0,1
29006,,,Sullivan Square - Upper Berth 6,42.383909,0,-71.076521,Boston,Sullivan Square,Busway,,Upper Berth 6,3.0,1
5678,,Shawmut Street,,42.389884,0,-71.033375,Chelsea,Central Ave @ Shawmut St,Central Avenue,,,3.0,1
2894,,Bonner Avenue,,42.405134,0,-71.101203,Medford,Mystic Ave @ Bonner Ave,Mystic Avenue,,,3.0,1
4173,,Royalcrest Drive,,42.189634,0,-71.058144,Randolph,N Main St @ Intervale Terr,North Main Street,,,3.0,1
70216,,,Kent Street - Green Line - Park Street & North,42.343927,0,-71.114569,Brookline,Kent Street,,,Park Street & North,0.0,2
place-NHRML-0055,"481 High St, Medford, MA 02155",,,42.421776,1,-71.133342,Medford,West Medford,,,,,2
4183,,,,42.173299,0,-71.047866,Randolph,N Main St @ Jasper Ln,North Main Street,,,3.0,1
48541,,Jackson Street,,42.420822,0,-70.989349,Revere,N Shore Rd @ Jackson St,North Shore Road,,,3.0,1
node-pktrm-stair7-gl,,,Park Street - Top of stairs between Alewife platform and Government Center & North platform,,3,,Boston,Park Street,,,,,1
3167,,Hancock Street,,42.276099,0,-71.027879,Quincy,E Squantum St @ Hancock St,East Squantum Street,,,3.0,1
934,,Pleasant Street,,42.35123,0,-71.118201,Boston,Commonwealth Ave @ Pleasant St,Commonwealth Avenue,,,3.0,1
3280,,Palmer Street,,42.260931,0,-70.978531,Quincy,Sea St @ Gannett Rd,Sea Street,,,3.0,1
node-523-street,,,State - Top of escalator from lobby to Milk Street,,3,,Boston,State,,,,,1
place-nubn,"Washington St and Dudley St, Roxbury, MA",,,42.329544,1,-71.083982,Boston,Nubian,,,,,1
31916,,Grove Street Extension,,42.305687,0,-71.147592,Brookline,Grove St @ Allendale Rd,Grove Street,,,3.0,1
32002,,,Quincy Center - Berth 2,42.251772,0,-71.005099,Quincy,Quincy Center,Busway,,Berth 2,3.0,1
247,"Northern Ave and Harbor St, Boston, MA 02210",Harbor Street,Northern Ave @ Harbor St - Silver Line - SL2 Design Center,42.346634,0,-71.035301,Boston,Northern Ave @ Harbor St,Northern Avenue,,Design Center,3.0,1
node-state-exchange-fareunpaid,,,State - Unpaid side of fare gates,,3,,Boston,State,,,,,1
808,,McKenna Terrace,,42.284044,0,-71.156956,Boston,Centre St opp Bellevue st,Centre Street,,,3.0,1
8207,,Boylston Street,,42.318916,0,-71.212736,Newton,Woodward St @ Boylston St,Woodward Street,,,3.0,1
1378,,Commonwealth Avenue Frontage Road Eastbound,,42.350034,0,-71.130722,Boston,Harvard Ave @ Commonwealth Ave,Harvard Avenue,,,3.0,1
109883,,River Road,,42.372069,0,-70.97424,Winthrop,Washington Ave @ River Rd,Washington Avenue,,,3.0,1
3391,,Mechanic Street,,42.257936,0,-71.039704,Milton,Adams St @ Mechanic St,Adams Street,,,3.0,1
9070093,,Whittier Place,Science Park - Green Line Copley & West Shuttle - Martha Rd @ Whittier Pl,42.366105,0,-71.066986,Boston,Science Park - Martha Rd @ Whittier Pl,Martha Road,,Copley & West Shuttle,3.0,1
6415,,Chittick Road,,42.248375,0,-71.123996,Boston,Truman Hwy @ Chittick Rd,Truman Highway,,,3.0,1
2660,,Hamlet Street,,42.384648,0,-71.092778,Somerville,Highland Ave @ Medford St,Highland Avenue,,,3.0,1
6600,,Central Square,,42.4634,0,-70.943974,Lynn,Union St @ Exchange St,Union Street,,,3.0,1
5699,,Sachem Street,,42.418789,0,-70.989564,Revere,Revere St @ Bay Rd,Revere Street,,,3.0,1
7510,,Assembly Drive,,42.456421,0,-71.009105,Saugus,Central St opp Assembly Ave,Central Street,,,3.0,1
5447,,Brown Terrace,,42.421675,0,-71.067219,Malden,Main St @ Brown Terr,Main Street,,,3.0,1
38813,,,,42.279443,0,-71.048564,Boston,Keystone Apartments,,,,3.0,1
FR-0301-02,,,Littleton/Route 495 - Commuter Rail - Track 2 (Boston),42.519236,0,-71.502643,Littleton,Littleton/Route 495,,2,Track 2 (Boston),2.0,1
4333,,Otis Street,,42.255582,0,-71.048092,Milton,Edge Hill Rd @ Otis St,Edgehill Road,,,3.0,0
7401,,,,42.448624,0,-71.009514,Saugus,Lincoln Ave @ Jackson St,Lincoln Avenue,,,3.0,1
6140,,Fayette Street,,42.470634,0,-70.936877,Lynn,Essex St @ Fayette St,Essex Street,,,3.0,1
node-pktrm-stair5-gl,,,Park Street - Top of stairs between Alewife platform and Copley & West platform,,3,,Boston,Park Street,,,,,1
door-andrw-exitonly,,,Andrew - Southampton St,42.330004,2,-71.057863,Boston,Andrew - Southampton St,,,,,2
2726,,Winter Hill Circle,,42.393489,0,-71.094823,Somerville,Broadway @ Winter Hill Plaza,Broadway,,,3.0,1
node-andrw-sibingress,,,Andrew - South inbound platform ingress point,,3,,Boston,Andrew,,,,,1
2594,,,,42.381865,0,-71.101817,Somerville,Somerville Ave opp School St,Somerville Avenue,,,3.0,1
node-856-lobby,,,Back Bay - Top of Tracks 5-7 elevator,,3,,Boston,Back Bay,,,,,1
5375,,Ferry Street,,42.424233,0,-71.065004,Malden,Eastern Ave @ Ferry St,Eastern Avenue,,,3.0,0
3900,,,,42.155852,0,-71.008642,Holbrook,N Franklin St @ Jewel Rd,North Franklin Street,,,3.0,1
96735,,Edison Street,,42.475514,0,-70.997329,Saugus,Walnut St opp Edison St,Walnut Street,,,3.0,1
node-mgngl-ramp-bottom,,,Magoun Square - Bottom of ramp,42.393673,3,-71.106381,Somerville,Magoun Square,,,,,1
1032,,Hatherly Road,,42.342645,0,-71.153726,Boston,Chestnut Hill Ave opp Wiltshire Rd,Chestnut Hill Avenue,,,3.0,1
4573,,First Avenue,,42.519613,0,-70.974484,Peabody,Centennial Dr @ First Ave,Fourth Street,,,3.0,1
793,,Pinehurst Street,,42.286337,0,-71.132805,Boston,Belgrade Ave @ Pinehurst St,Belgrade Avenue,,,3.0,1
WR-0120-B,,Prescott Street,Reading - Commuter Rail Shuttle - Lincoln St @ Prescott St,42.521793,0,-71.107921,Reading,Reading - Lincoln St @ Prescott St,Lincoln Street,,Commuter Rail Shuttle,3.0,1
3782,,,,42.201868,0,-71.007149,Braintree, Franklin St @ Washington St,Franklin Street,,,3.0,1
4847,,,,42.493847,0,-70.870287,Marblehead,Humphrey St @ Lafayette St,Humphrey Street,,,3.0,1
1115,,Windom Street,,42.358658,0,-71.123967,Boston,Cambridge St @ Seattle St,Cambridge Street,,,3.0,1
5546,,McLeavey Street,,42.415021,0,-71.030613,Revere,Park Ave @ McLeavey St,Park Avenue,,,3.0,1
1853,,Wedgewood Road,,42.294255,0,-71.136678,Boston,Weld St opp Wedgewood Rd,Weld Street,,,3.0,1
node-mvbcl-msqstair-entrance,,,Maverick - Top of stairs between Maverick Square and lobby,42.369118,3,-71.039522,Boston,Maverick,,,,,1
147,,Tremont Street,,42.347374,0,-71.068436,Boston,Herald St @ Tremont St,Herald Street,,,3.0,1
NHRML-0218-B2,,,North Billerica - Commuter Rail Shuttle - Station St @ West Parking Lot,42.592849,0,-71.281409,Billerica,North Billerica - Station St @ West Parking Lot,Station Street,,Commuter Rail Shuttle,3.0,1
7446,,Northside Avenue,,42.461965,0,-70.984691,Lynn,Boston St @ Southside Ave,Boston Street,,,3.0,1
71270,,Central Avenue,Central Ave - Mattapan Line Shuttle - Eliot St @ Central Ave,42.269557,0,-71.073302,Milton,Eliot St @ Central Ave - Central Ave Sta,Eliot Street,,Mattapan Shuttle,3.0,1
70245,,,Museum of Fine Arts - Green Line - (E) Heath Street,42.337875,0,-71.09524,Boston,Museum of Fine Arts,,,Heath Street,0.0,1
1877,,Morey Road,,42.293627,0,-71.140097,Boston,Weld St @ Morey St,Weld Street,,,3.0,1
11319,,West Third Street,,42.343047,0,-71.055038,Boston,W Second St opp W Third St,West Second Street,,,3.0,1
node-333-top,,,Braintree - Top of Commuter Rail platform escalator,42.207699,3,-71.001357,Braintree,Braintree,,,,,1
place-chswk,"Commonwealth Ave and Chiswick Rd, Boston, MA",,,42.340805,1,-71.150711,Boston,Chiswick Road,,,,,2
86940,,Harvard Street,,42.376184,0,-71.243664,Waltham,Main St @ Harvard St,Main Street,,,3.0,1
node-947-lobby,,,Savin Hill - Top of elevator between Sydney Street and lobby,42.310859,3,-71.053661,Boston,Savin Hill,,,,,1
8323,,Herrick Street,,42.564189,0,-70.879158,Beverly,Sohier Rd @ Beverly High School,Sohier Road,,,3.0,1
4826,,Salem Street,,42.476217,0,-70.892267,Swampscott,Humphrey St opp Salem St,Humphrey Street,,,3.0,0
1346,,Townsend Street,,42.317285,0,-71.086546,Boston,Humboldt Ave @ Townsend St,Humboldt Avenue,,,3.0,1
node-859-platform,,,Tufts Medical Center - Bottom of Elevator 859,,3,,Boston,Tufts Medical Center,,,,,1
3235,,Greene Street,,42.267835,0,-71.014098,Quincy,Elm Ave opp Greene St,Elm Avenue,,,3.0,1
node-899-platform,,,"North Quincy - Bottom of elevator between platform and Hancock Street, Newport Avenue lobby",42.27622,3,-71.030607,Quincy,North Quincy,,,,,1
6149,,Burrill Street,,42.475746,0,-70.921845,Swampscott,Essex St @ Burrill St,Essex Street,,,3.0,1
1773,,Carlton Street,,42.349273,0,-71.109993,Brookline,Mountfort St @ Lenox St,Mountfort Street,,,3.0,1
85565,,Varick Road,,42.283778,0,-71.169626,Boston,Baker St opp Varick Rd,Baker Street,,,3.0,1
node-wlsta-mainnewp-fareunpaid,,,Wollaston - Unpaid side of Newport Avenue lobby fare gates,,3,,Quincy,Wollaston,,,,,1
door-bcnfd-dean,,,"Beaconsfield - Dean Rd, Beacon St",42.336053,2,-71.141404,Brookline,"Beaconsfield - Dean Rd, Beacon St",,,,,2
8805,,Tolman Street,,42.288645,0,-71.047238,Boston,Neponset Ave @ Tolman St,Neponset Avenue,,,3.0,1
1491,,Harrison Avenue,,42.328655,0,-71.082962,Boston,Dudley St @ Harrison Ave,Dudley Street,,,3.0,1
2710,,Autumn Street,,42.388802,0,-71.086483,Somerville,Broadway @ Cross St,Broadway,,,3.0,1
9070171,,Braeland Avenue,Newton Centre - Green Line Riverside Shuttle - Langley Rd opp Braeland Ave,42.329976,0,-71.190997,Newton,Newton Centre - Langley Rd opp Braeland Ave,Langley Road,,Riverside Shuttle,3.0,1
5037,,Winthrop Street,,42.414274,0,-71.119813,Medford,George St @ Winthrop St,George Street,,,3.0,1
DB-2222-B1,,Woodhaven Street,Blue Hill Avenue - South Station Shuttle - Blue Hill Ave opp Woodhaven St,42.272976,0,-71.093404,Boston,Blue Hill Avenue - Blue Hill Ave opp Woodhaven St,Blue Hill Avenue,,South Station Shuttle,3.0,1
39675,,Penns Hill Road,,42.233273,0,-70.996388,Quincy,Franklin St @ Penns Hill Rd,Franklin Street,,,3.0,1
994,,Union Street,,42.346204,0,-71.152305,Boston,Winship St @ Union St,Winship Street,,,3.0,1
16500,,,,42.274306,0,-71.116515,Boston,950 American Legion Hwy,American Legion Highway,,,3.0,1
8520,,George Street,,42.348329,0,-71.188066,Newton,Centre St @ Lombard St,Centre Street,,,3.0,0
3493,,North Central Avenue,,42.261731,0,-71.024958,Quincy,Beale St @ S Central Ave,Beale Street,,,3.0,1
5072,,,Malden Center - West Busway,42.426729,0,-71.074659,Malden,Malden Center,,,West Busway,3.0,1
node-harsq-lowerramp-lower,,,Harvard - Bottom of ramp between main lobby and Lower Busway,,3,,Cambridge,Harvard,,,,,1
1562,,,,42.344908,0,-71.100835,Boston,132 Brookline Ave opp Fullerton St,Brookline Avenue,,,3.0,1
16606,,Surfside Road,,42.457537,0,-70.935808,Lynn,Beach Rd @ Surfside Rd,Beach Road,,,3.0,1
95618,,Hartshorn Road,,42.147098,0,-71.246662,Walpole,East St @ Diamond St,East Street,,,3.0,1
node-fldcr-farepaid,,,Fields Corner - Paid side of fare gates,42.300049,3,-71.061699,Boston,Fields Corner,,,,,1
node-spmnl-ofarepaid,,,Science Park/West End - Paid side of fare gates,42.36666,3,-71.067927,Boston,Science Park/West End,,,,,1
2929,,,,42.308895,0,-71.073962,Boston,Columbia Rd @ Intervale St,Columbia Road,,,3.0,1
node-andrw-nibstairs-lobby,,,Andrew - Top of north inbound stairs,,3,,Boston,Andrew,,,,,1
9370022,,State Street,State - Red Line Ashmont/Braintree Shuttle - Devonshire St @ State St,42.358594,0,-71.057305,Boston,State - Devonshire St @ State St,Devonshire Street,,Ashmont/Braintree Shuttle,3.0,1
12610,,Merriam Street,,42.378242,0,-71.091691,Somerville,Somerville Ave @ Merriam St,Somerville Avenue,,,3.0,1
1576,,Mount Pleasant Avenue,,42.324862,0,-71.075227,Boston,Blue Hill Ave @ Dudley St,Blue Hill Avenue,,,3.0,1
285,,Mercer Street,,42.331495,0,-71.048888,Boston,E 8th St @ Mercer St,East Eighth Street,,,3.0,1
55011,,,,42.391021,0,-71.070228,Boston,Alford St @ MWRA Pump Station,Alford Street,,,3.0,1
3067,,Adams Street,,42.297184,0,-71.056392,Boston,Neponset Ave @ Adams St King Square,Neponset Avenue,,,3.0,1
2202,,Rhinecliff Street,,42.412752,0,-71.186419,Arlington,West Service Rd @ St Pauls Church,Frontage Road,,,3.0,1
17102,,Lakeview Avenue,,42.584611,0,-70.884687,Beverly,Enon St @ Lakeview Ave,Enon Street,,,3.0,1
13856,,Old Stone Way,,42.199225,0,-70.925524,Weymouth,Mutton Lane @ Old Stone Way,Mutton Lane,,,3.0,1
3331,,Liberty Street,,42.240825,0,-71.005941,Quincy,Water St @ Pleasant St,Water Street,,,3.0,1
3999,,Quincy Street,,42.135546,0,-71.006679,Holbrook,S Franklin St @ Quincy St,South Franklin Street,,,3.0,1
5254,,Montclair Avenue,,42.2893,0,-71.142269,Boston,Centre St @ Montclair Ave,Centre Street,,,3.0,1
5481,,,,42.424878,0,-71.042284,Malden,Broadway @ Broadway Plaza,Broadway,,,3.0,1
9048,,Third Street,,42.410186,0,-71.07959,Medford,Middlesex Ave @ Third St,Middlesex Avenue,,,3.0,1
8459,,Brooksbie Road,,42.488271,0,-71.268309,Bedford,Great Rd @ Brooksbie Rd,The Great Road,,,3.0,1
1639,,Sullivan Road,,42.240748,0,-71.024085,Quincy,West St @ Ida St,West Street,,,3.0,1
1295,,Commonwealth Avenue Frontage Road Eastbound,,42.343586,0,-71.142524,Boston,Washington St @ Commonwealth Ave,Washington Street,,,3.0,1
71187,,Burnett Street,,42.303768,0,-71.110246,Boston,Washington St @ Burnett St,Washington Street,,,3.0,2
node-asmnl-peasbstair-lobby,,,Ashmont - Top of stairs from Red Line platform to Peabody Square,42.284736,3,-71.064023,Boston,Ashmont,,,,,1
place-FB-0191,"275 West St, Walpole, MA 02081",,,42.145477,1,-71.25779,Walpole,Walpole,,,,,2
7779,,Berkley Street,,42.413708,0,-71.249663,Waltham,Trapelo Rd @ Berkley St,Trapelo Road,,,3.0,0
5614,,Hawthorn Street,,42.390253,0,-71.035677,Chelsea,Park St @ Hawthorne St,Park Street,,,3.0,0
88591,,,,42.505811,0,-71.147136,Woburn,Veterans Memorial Senior Center,,,,3.0,1
node-383-lobby,,,North Quincy - Top of escalator from Newport Avenue to lobby,42.276383,3,-71.031055,Quincy,North Quincy,,,,,1
111803,,Centre Street,,42.156685,0,-71.145661,Canton,Washington St @ Canton Center Station,Washington Street,,,3.0,1
156,,F Street,,42.336634,0,-71.04761,Boston,W Broadway @ F St,West Broadway,,,3.0,1
7887,,Hartford Street,,42.486419,0,-71.27675,Bedford,Loomis St opp Hartford St,Loomis Street,,,3.0,1
node-bbsta-olestairs-lobby,,,Back Bay - Top of Orange Line platform west stairs,,3,,Boston,Back Bay,,,,,1
7832,,Melrose Street,,42.34789,0,-71.248621,Newton,Commonwealth Ave @ Melrose St,Commonwealth Avenue,,,3.0,1
node-kencl-fareunpaid,,,Kenmore - Unpaid side of fare gates,,3,,Boston,Kenmore,,,,,1
9088,,Highview Avenue,,42.456216,0,-71.047545,Melrose,Laurel St @ Highview Ave,Laurel Street,,,3.0,1
node-881-lobby,,,Sullivan Square - Top of Elevator 881,,3,,Boston,Sullivan Square,,,,,1
1657,,Brookdale Road,,42.420438,0,-71.153004,Arlington,Mystic St @ Rangely Rd,Mystic Street,,,3.0,1
node-pktrm-nbwinterstairs-lobby,,,Park Street - Top of stairs between Alewife platform and Winter Street Concourse,,3,,Boston,Park Street,,,,,1
door-alfcl-alewife,,,Alewife - Alewife Path,42.395862,2,-71.140929,Cambridge,Alewife - Alewife Path,,,,,1
node-crtst-southlobstair-landing,,,Courthouse - Top of stairs between Thomson Place landing and lobby,,3,,Boston,Courthouse,,,,,1
4515,,Albert J Brown Circle,,42.42095,0,-71.00354,Revere,Brown Circle Rotary,American Legion Highway,,,3.0,1
595,,,,42.278015,0,-71.066396,Boston,Dorchester Ave opp Valley Rd,Dorchester Avenue,,,3.0,1
5822,,Woods Avenue,,42.402491,0,-70.999702,Revere,Revere Beach Pkwy @ Woods Ave,Revere Beach Parkway,,,3.0,0
5790,,Broadway,,42.409605,0,-71.010465,Revere,49 Central Ave,Central Avenue,,,3.0,1
28,,O Street,,42.335672,0,-71.029038,Boston,E Broadway @ O St,East Broadway,,,3.0,1
7791,,Nutting Road,,42.402514,0,-71.236493,Waltham,Lake St opp Hardy Residences,Lake Street,,,3.0,1
8177,,Aldrich Road,,42.364152,0,-71.188539,Watertown,Watertown St @ Aldrich Rd,Watertown Street,,,3.0,1
3136,,Hummock Road,,42.286979,0,-71.023727,Quincy,E Squantum St @ Hummock Rd,East Squantum Street,,,3.0,1
node-405-lobby,,,Aquarium - Bottom of escalator from Atlantic Avenue to lobby,,3,,Boston,Aquarium,,,,,1
3230,,Mason Street,,42.274126,0,-71.012354,Quincy,W Elm Ave @ Mason St,West Elm Avenue,,,3.0,1
door-chncl-ogessex,,,"Chinatown - Washington St, Essex St",42.352252,2,-71.062519,Boston,"Chinatown - Washington St, Essex St",,,,,2
2464,,Dow Avenue,,42.415764,0,-71.194248,Arlington,Wadsworth Rd @ Dow Ave,Wadsworth Rd,,,3.0,1
3887,,Milton Road,,42.174913,0,-71.012872,Braintree,Washington St @ South St,Washington Street,,,3.0,1
FB-0125,,,Islington - Commuter Rail,42.22105,0,-71.183961,Westwood,Islington,,,Commuter Rail,2.0,2
8806,,,,42.290354,0,-71.048593,Boston,248 Neponset Ave,Neponset Avenue,,,3.0,1
door-lech-busway,,,Lechmere - Busway,42.371733,2,-71.076881,Cambridge,Lechmere - Busway,,,,,1
3799,,Harbor Villa Avenue,,42.230617,0,-70.972895,Braintree,Quincy Ave @ Hayward St,Quincy Avenue,,,3.0,1
70250,,,Brigham Circle - Green Line - Park Street & North,42.334846,0,-71.103017,Boston,Brigham Circle,,,Park Street & North,0.0,1
1179,,Guild Street,,42.326035,0,-71.087812,Boston,Washington St @ Guild St,Washington Street,,,3.0,1
4916,,Ocean Street,,42.467462,0,-70.922245,Swampscott,Humphrey St @ Eastern Ave,Humphrey Street,,,3.0,1
node-ccmnl-farepaid,,,Community College - Paid side of fare gates,,3,,Boston,Community College,,,,,1
node-rbmnl-beachfareunpaid,,,Revere Beach - Unpaid side of exit-only gates,42.40844,3,-70.992549,Revere,Revere Beach,,,,,1
node-dwnxg-stair5-lobby,,,Downtown Crossing - Top of stairs between Ashmont/Braintree platform and Chauncy Street lobby,,3,,Boston,Downtown Crossing,,,,,1
2593,,Loring Street,,42.382627,0,-71.104227,Somerville,Somerville Ave opp Loring St,Somerville Avenue,,,3.0,1
5093,"Washington St and Union Park St, Boston, MA",Union Park Street,Washington St @ Union Pk - Silver Line - South Station/Downtown Crossing,42.341308,0,-71.069417,Boston,Washington St @ Union Pk,Washington Street,,South Station/Downtown Crossing,3.0,1
580,,Fremont Street,,42.270027,0,-71.090009,Boston,River St @ Fremont St,River Street,,,3.0,1
1790,,Worcester Square,,42.335883,0,-71.074011,Boston,Harrison Ave @ Worcester Sq,Harrison Avenue,,,3.0,1
Boat-Hull,"180 Main St, Hull, MA 02045",,Hull - Hingham/Hull Ferry,42.303251,0,-70.920215,Hull,Hull,,,Hingham/Hull Ferry,4.0,1
door-cntsq-obmass,,,Central - Mass Ave,42.365541,2,-71.103749,Cambridge,Central - Mass Ave,,,,,1
Boat-Quincy,"Marina Bay near Squantum Point Park, Quincy, MA 02171",,Quincy - Winthrop Ferry,42.30132,0,-71.03201,Quincy,Quincy,,,Winthrop Ferry,4.0,1
8674,,Willow Street,,42.376571,0,-71.216876,Waltham,Main St @ Willow St,Main Street,,,3.0,1
7467,,Westland Avenue,,42.458467,0,-70.999306,Saugus,Winter St opp Westland Ave,Winter Street,,,3.0,1
4814,,Fuller Terrace,,42.467168,0,-70.913087,Swampscott,281 Humphrey St,Humphrey Street,,,3.0,1
9070229,,,Washington Square - Green Line Cleveland Circle Shuttle,42.339687,0,-71.135035,Brookline,Washington Square,,,Cleveland Circle Shuttle,3.0,1
17093,"Terminal B Arrivals, Door B110, Boston Logan International Airport, Boston, MA 02128",,Terminal B Stop 2 - Silver Line - SL1 South Station,42.362099,0,-71.017983,Boston,Terminal B Stop 2 - Arrivals Level,Logan Airport Terminal B,,South Station,3.0,1
node-pktrm-tremwfare-paid,,,Park Street - Paid side of fare gates,,3,,Boston,Park Street,,,,,1
node-sull-nbstairs-platform,,,Sullivan Square - Bottom of stairs for Oak Grove,,3,,Boston,Sullivan Square,,,,,1
49826,,Prospect Street,,42.479184,0,-71.150086,Woburn,Montvale Ave @ Prospect St,Montvale Avenue,,,3.0,1
5631,,Washington Avenue,,42.409324,0,-71.029914,Chelsea,Garfield Ave @ Fenno St,Garfield Avenue,,,3.0,1
111791,,Draper Street,,42.172526,0,-71.139085,Canton,Washington St - Pleasant St to Chapman St (FLAG),Washington Street,,,3.0,1
node-spmnl-mfarepaid,,,Science Park/West End - Paid side of fare gates,42.366854,3,-71.067755,Boston,Science Park/West End,,,,,1
1472,,Elba Terrace,,42.307568,0,-71.065473,Boston,Bowdoin St opp Elba Terr,Bowdoin Street,,,3.0,1
node-944-platform,,,Malden Center - Top of Commuter Rail platform elevator,42.426915,3,-71.074049,Malden,Malden Center,,,,,1
3973,,Walsh Road,,42.143902,0,-71.008907,Holbrook,S Franklin St @ Walsh Rd,South Franklin Street,,,3.0,0
71150,,,Kenmore - Green Line - Park Street & North,42.348949,0,-71.095169,Boston,Kenmore,,,Park Street & North,0.0,1
7193,,Raymond Avenue,,42.5791,0,-70.887558,Beverly,Dodge St opp Raymond Ave,Dodge Street,,,3.0,1
5348,,Harvard Street,,42.420835,0,-71.057054,Malden,Ferry St @ Winthrop St,Ferry Street,,,3.0,1
70618,,Boston Providence Turnpike,,42.25058,0,-71.170267,Dedham,272 Washington St,Washington Street,,,3.0,1
8166,,Newtonville Avenue,,42.351007,0,-71.207027,Newton,Walnut St @ Newtonville Ave,Walnut Street,,,3.0,1
2531,,Bennett Street,,42.37812,0,-71.09467,Somerville,Prospect St @ Bennett Ct,Prospect Street,,,3.0,1
2797,,Hilburn Street,,42.277378,0,-71.127103,Boston,Metropolitan Ave @ Hilburn St,Metropolitan Avenue,,,3.0,1
2623,,Mossland Street,,42.387873,0,-71.1153,Somerville,Elm St @ Cedar St,Elm Street,,,3.0,1
813,,Powell Street,,42.277537,0,-71.16324,Boston,Spring St opp Powell St,Spring Street,,,3.0,1
7242,,Hanover Street,,42.467861,0,-70.953569,Lynn,Washington St @ Beacon Hill Ave,Washington Street,,,3.0,1
5435,,Orchard Street,,42.435046,0,-71.045519,Malden,Lebanon St @ Orchard St,Lebanon Street,,,3.0,1
9170151,,Kenmore Street,Kenmore - Green Line Westbound Shuttle - Commonwealth Ave @ Kenmore St,42.34916,0,-71.0949,Boston,Kenmore - Commonwealth Ave @ Kenmore St,Commonwealth Avenue,,Westbound Shuttle,3.0,1
7555,,Highland Avenue,,42.462628,0,-71.018822,Saugus,Vine St @ Talbot St,Vine Street,,,3.0,0
7619,,Mague Avenue,,42.353981,0,-71.233695,Newton,River St opp Mague St,River Street,,,3.0,1
4765,,Walker Road,,42.476845,0,-70.910284,Swampscott,Paradise Rd @ Walker Rd,Paradise Road,,,3.0,1
109888,,Sunnyside Avenue,,42.372686,0,-70.984401,Winthrop,Pleasant St @ Buchanan St,Pleasant Street,,,3.0,1
922,,Dustin Street,,42.350692,0,-71.145688,Boston,Cambridge St opp Dustin St,Cambridge Street,,,3.0,1
6275,,Gore Road,,42.421713,0,-71.0173,Revere,Malden St @ Roland Rd,Malden Street,,,3.0,1
2441,,Broadway,,42.369626,0,-71.100892,Cambridge,Prospect St @ Broadway,Prospect Street,,,3.0,1
NEC-2276,,,Back Bay - Commuter Rail,42.34735,0,-71.075727,Boston,Back Bay,,,Commuter Rail,2.0,1
74612,,,Courthouse - Silver Line - Airport/Design Center/Chelsea,42.35245,0,-71.04685,Boston,Courthouse,,,Airport/Design Center/Chelsea,3.0,1
3328,,Gay Street,,42.244854,0,-71.00151,Quincy,School St opp Gay St,School Street,,,3.0,1
8274,,Rangeley Road,,42.420083,0,-71.152743,Arlington,144 Mystic St opp Rangely Rd,Mystic Street,,,3.0,1
4157,,Hallen Avenue,,42.23864,0,-71.069675,Milton,Randolph Ave @ Hallen Ave,Randolph Avenue,,,3.0,1
1846,,Russett Road,,42.292974,0,-71.152359,Boston,Weld St @ Russett Rd,Weld Street,,,3.0,1
8210,,Cottage Street,,42.312973,0,-71.217485,Newton,Elliot St @ Cottage St,Elliot Street,,,3.0,1
WR-0264-B2,,,Lawrence - Commuter Rail Shuttle - Busway,42.701961,0,-71.152442,Lawrence,Lawrence - Busway,,,Commuter Rail Shuttle,3.0,1
5233,,Arborway,,42.302682,0,-71.111044,Boston,Washington St @ Arborway Garage,Washington Street,,,3.0,0
FR-0361,,,Ayer - Commuter Rail,42.559074,0,-71.588476,Ayer,Ayer,,,Commuter Rail,2.0,2
NEC-1659-B,,,Wickford Junction - Commuter Rail Shuttle - Pick-up/Drop-off,41.581095,0,-71.49183,North Kingstown,Wickford Junction - Pick-up/Drop-off,,,Commuter Rail Shuttle,3.0,1
7392,,Guild Road,,42.452038,0,-70.992446,Saugus,Lincoln Ave opp Guild Rd,Lincoln Avenue,,,3.0,1
2934,,Annabel Street,,42.318702,0,-71.063102,Boston,Columbia Rd @ Annabel St,Columbia Road,,,3.0,1
4538,,,,42.485236,0,-70.941027,Lynn,Western Ave @ Linton Rd,Western Avenue,,,3.0,1
8602,,Waltham Street,,42.435897,0,-71.235305,Lexington,Marrett Rd @ Waltham St,Marrett Road,,,3.0,1
door-dwnxg-winter,,,"Downtown Crossing - Washington St, Winter St",42.355362,2,-71.06072,Boston,"Downtown Crossing - Washington St, Winter St",,,,,1
8865,,,,42.494153,0,-71.155323,Woburn,Main St opp Capozzi Cir,Main Street,,,3.0,1
49067,,Central Avenue,,42.435236,0,-71.029096,Malden,Salem St @ Clapp St,Salem Street,,,3.0,1
4742,,,,42.448506,0,-70.963811,Lynn,Lynnway @ Hanson St,Lynnway,,,3.0,1
node-397-landing,,,Aquarium - Landing for escalator from lobby to State Street,,3,,Boston,Aquarium,,,,,1
8392,,Cutter Road,,42.280413,0,-71.167935,Boston,Baker St @ Cutter Rd,Baker Street,,,3.0,1
place-cenav,"23 Central Ave, Milton, MA 02186",,,42.270027,1,-71.073444,Milton,Central Avenue,,,,,1
1450,,Beechwood Avenue,,42.364445,0,-71.173414,Watertown,Arsenal St opp Beechwood Ave,Arsenal Street,,,3.0,1
4054,,,,42.170367,0,-71.035376,Randolph,North St opp Seton Way,North Street,,,3.0,1
node-999-rl,,,Downtown Crossing - Bottom of elevator between Alewife platform and Oak Grove platform,,3,,Boston,Downtown Crossing,,,,,1
6022,,South Street,,42.286623,0,-71.128949,Boston,Poplar St @ South St,Poplar Street,,,3.0,1
1051,,Travis Street,,42.363248,0,-71.128518,Boston,Western Ave @ Travis St,Western Avenue,,,3.0,1
node-wondl-farepaid,,,Wonderland - Paid side of fare gates,42.413652,3,-70.991768,Revere,Wonderland,,,,,1
node-sstat-419stair-middle,,,"South Station - Bottom of stairs for Red Line, Silver Line lobby",,3,,Boston,South Station,,,,,1
5253,,Ainsworth Street,,42.289725,0,-71.141686,Boston,1539 Centre St opp Bradfield Ave,Centre Street,,,3.0,1
1317,,Wait Street,,42.333494,0,-71.106036,Boston,Huntington Ave opp Fenwood Rd,Huntington Avenue,,,3.0,1
FB-0148-02,,,Norwood Central - Commuter Rail - Track 2 (Boston),42.188775,0,-71.199665,Norwood,Norwood Central,,2,Track 2 (Boston),2.0,1
31187,,,,42.310681,0,-71.103431,Boston,Washington St @ Ophir St,Washington Street,,,3.0,1
7319,,Western Avenue,,42.47729,0,-70.949069,Lynn,Chestnut St @ Western Ave,Chestnut Street,,,3.0,1
node-125-entrance,,,Bowdoin - Top of escalator from lobby to entrance,,3,,Boston,Bowdoin,,,,,1
15983,,Greystone Road,,42.470466,0,-71.100741,Stoneham,550 Main St,Main Street,,,3.0,1
46276,,Adams Street,,42.417248,0,-71.016434,Revere,Cushman Ave @ Adams St,Cushman Avenue,,,3.0,1
NEC-2237-05,,,Forest Hills - Commuter Rail - Track 5,42.301105,0,-71.113625,Boston,Forest Hills,,5,Commuter Rail - Track 5,2.0,1
door-forhl-upper,,,Forest Hills - Washington St (Roslindale),42.300204,2,-71.114404,Boston,Forest Hills - Washington St (Roslindale),,,,,1
NEC-2108,,,Sharon - Commuter Rail,42.124553,0,-71.184468,Sharon,Sharon,,,Commuter Rail,2.0,1
node-pktrm-sbwinterstairs-platform,,,Park Street - Bottom of stairs between Ashmont/Braintree platform and Winter Street Concourse,,3,,Boston,Park Street,,,,,1
NHRML-0218-02,,,North Billerica - Commuter Rail - Track 2 (Boston),42.593248,0,-71.280995,Billerica,North Billerica,,2,Track 2 (Boston),2.0,1
78121,,Jackson Street,,42.374185,0,-71.231293,Waltham,River St @ Jackson St,River Street,,,3.0,0
1515,,Geneva Avenue,,42.303753,0,-71.071158,Boston,Bowdoin St @ Geneva Ave,Bowdoin Street,,,3.0,1
9983,,Charles Street South,,42.351039,0,-71.066798,Boston,Stuart St @ Charles St S,Stuart Street,,,3.0,1
1547,,Kennard Road,,42.329502,0,-71.128441,Brookline,Boylston St @ Kennard Rd,Boylston Street,,,3.0,1
1552,,Cypress Street,,42.324798,0,-71.121275,Brookline,High St @ Cypress St,High Street,,,3.0,1
DB-2205-02,,,Fairmount - Commuter Rail - Track 2 (South Station),42.253638,0,-71.11927,Boston,Fairmount,,2,Track 2 (South Station),2.0,1
9246,,Green Street,,42.491692,0,-71.068655,Wakefield,Main St @ Green St,Main Street,,,3.0,1
35751,,Cary Avenue,,42.396041,0,-71.028178,Chelsea,Broadway @ Cary Ave,Broadway,,,3.0,1
6951,,Lake Street,,42.45668,0,-71.138449,Winchester,Main St @ Lake St,Main Street,,,3.0,1
7132,,Vestry Street,,42.54657,0,-70.879755,Beverly,Cabot St @ Vestry St,Cabot Street,,,3.0,1
16539,,Devonshire Street,,42.356727,0,-71.05748,Boston,Milk St @ Devonshire St,Milk Street,,,3.0,1
FR-0137,,,Hastings - Commuter Rail,42.385755,0,-71.289203,Weston,Hastings,,,Commuter Rail,2.0,2
30336,,Dracut Street,,42.287003,0,-71.063901,Boston,Dorchester Ave @ Dracut St,Dorchester Avenue,,,3.0,1
2119,,Sullivan Road,,42.375167,0,-71.154041,Cambridge,Belmont St @ Sullivan Rd,Belmont Street,,,3.0,1
3933,,Academy Street,,42.209759,0,-71.003525,Braintree,Washington St opp Academy St,Washington Street,,,3.0,1
6260,,Washington Avenue,,42.42711,0,-71.022307,Revere,Malden St @ Washington Ave,Malden Street,,,3.0,1
node-766-top,,,Gilman Square - Top of School St Elevator 766,42.388245,3,-71.097497,Somerville,Gilman Square,,,,,1
3047,,Standish Avenue,,42.262794,0,-71.012046,Quincy,Hancock St opp Standish Ave,Hancock Street,,,3.0,1
4721,,Boardman Street,,42.39172,0,-71.013117,Boston,McClellan Highway @ Boardman St,McClellan Highway,,,3.0,1
2863,,Pearl Street,,42.379412,0,-71.063506,Boston,Bunker Hill St @ Pearl St,Bunker Hill Street,,,3.0,1
7169,,Franklin Place,,42.545995,0,-70.879976,Beverly,Cabot St @ Franklin Pl,Cabot Street,,,3.0,1
1327,,Homestead Street,,42.311816,0,-71.090489,Boston,Humboldt Ave @ Homestead St,Humboldt Avenue,,,3.0,1
585,,Leahaven Road,,42.271259,0,-71.082334,Boston,River St @ Leahaven Rd,River Street,,,3.0,1
4182,,Liberty Street,,42.174708,0,-71.04854,Randolph,N Main St @ Grove St,North Main Street,,,3.0,1
3274,,Manet Avenue,,42.266341,0,-70.966823,Quincy,Sea St @ Manet Ave,Sea Street,,,3.0,1
9045,,Bradbury Avenue,,42.407849,0,-71.082879,Medford,Fellsway @ Bradbury Ave,Fellsway,,,3.0,1
door-orhte-benning,,,Orient Heights - Bennington St,42.38708,2,-71.004664,Boston,Orient Heights - Bennington St,,,,,1
6834,,Chestnut Street,,42.468936,0,-70.936996,Lynn,Union St @ Chestnut St,Union Street,,,3.0,1
5607,,Everett Avenue,,42.391656,0,-71.038396,Chelsea,Third St @ Chestnut St,Third Street,,,3.0,1
6204,,Oakland Avenue,,42.4177,0,-71.180753,Arlington,Park Ave @ Oakland Ave,Park Avenue,,,3.0,0
6120,,Lincoln Road,,42.493937,0,-70.893194,Salem,Loring Ave opp Lincoln Rd,Loring Avenue,,,3.0,1
70266,,,Butler - Mattapan Trolley - Ashmont,42.272477,0,-71.062438,Boston,Butler,,,Ashmont,0.0,1
5349,,Belmont Street,,42.420114,0,-71.054897,Malden,Ferry St @ Belmont St,Ferry Street,,,3.0,1
GRB-0276-S,,,Greenbush - Commuter Rail - Track 1 (All Trains),42.178776,0,-70.746641,Scituate,Greenbush,,1,Track 1 (All Trains),2.0,1
9030,,Wentworth Street,,42.424888,0,-71.080878,Malden,Highland Ave @ Wentworth St,Highland Avenue,,,3.0,1
5711,,Elmwood Avenue,,42.413516,0,-71.010219,Revere,570 Broadway @ Elmwood Ave,Broadway,,,3.0,1
32910,,Southern Artery,,42.253805,0,-70.995792,Quincy,McGrath Hwy opp Southern Artery,McGrath Highway,,,3.0,1
5006,,,,42.421579,0,-71.118106,Medford,305 Winthrop St,Winthrop Street,,,3.0,1
14875,,,,42.479326,0,-70.90595,Swampscott,opp 331 Paradise Rd,Paradise Road,,,3.0,1
4669,,Nursery Street,,42.530759,0,-70.908772,Salem,North St opp Nursery St,North Street,,,3.0,1
2269,,Cottage Park Avenue,,42.399436,0,-71.133125,Cambridge,Massachusetts Ave @ Cottage Park Ave,Massachusetts Avenue,,,3.0,1
NHRML-0116-02,,,Mishawum - Commuter Rail - Track 2 (Boston),42.504402,0,-71.137618,Woburn,Mishawum,,2,Track 2 (Boston),2.0,2
85511,,Spiers Road,,42.290209,0,-71.188248,Newton,Sawmill Brook Pkwy @ Spiers Rd,Sawmill Brook Parkway,,,3.0,1
8478,,Spiers Road,,42.290281,0,-71.188363,Newton,Sawmill Brook Pkwy @ Spiers Rd,Sawmill Brook Parkway,,,3.0,1
45332,,Gale Street,,42.42555,0,-71.085803,Malden,Pleasant St @ Vista St,Pleasant Street,,,3.0,1
node-cntsq-obstair-fareunpaid,,,Central - Unpaid side of fare gates,,3,,Cambridge,Central,,,,,1
109873,,Revere Street,,42.386405,0,-70.975838,Winthrop,Crest Ave @ Revere St,Crest Avenue,,,3.0,1
35711,,Winter Street,,42.238938,0,-70.882879,Hingham,Main St @ Alexandra Way,Main Street,,,3.0,0
70264,,,Cedar Grove - Mattapan Trolley - Ashmont,42.279693,0,-71.060381,Boston,Cedar Grove,,,Ashmont,0.0,1
7356,,Bacheller Street,,42.488119,0,-70.965629,Lynn,126 Lynnfield St,Lynnfield Street,,,3.0,1
node-wlsta-stair4-lobby,,,Wollaston - Bottom of stairs between Newport Avenue lobby and platform,,3,,Quincy,Wollaston,,,,,1
7427,,Myrtle Street,,42.447634,0,-71.010244,Saugus,Lincoln Ave @ Lincoln Ct,Lincoln Avenue,,,3.0,1
515,,Fuller Street,,42.281923,0,-71.071177,Boston,Washington St @ Fuller St,Washington Street,,,3.0,1
NB-0080-B0,,,West Roxbury - Commuter Rail Outbound Shuttle,42.281487,0,-71.159678,Boston,West Roxbury,,,Outbound Shuttle,3.0,1
door-waban-parkr,,,Waban - Parking (Ramp),42.325748,2,-71.230288,Newton,Waban - Parking (Ramp),,,,,1
286,,Dorchester Street,,42.332782,0,-71.050957,Boston,E 8th St @ Dorchester St,East Eighth Street,,,3.0,1
5468,,Cherry Street,,42.437393,0,-71.046972,Malden,Lebanon St @ Valley St,Lebanon Street,,,3.0,1
9247,,Charles Street,,42.494618,0,-71.068794,Wakefield,Main St @ Charles St,Main Street,,,3.0,1
door-sstat-dewey,,,"South Station - Dewey Sq (Summer St, Atlantic Ave)",42.352886,2,-71.055505,Boston,"South Station - Dewey Sq (Summer St, Atlantic Ave)",,,,,1
4903,,Puritan Road,,42.470528,0,-70.89482,Swampscott,Humphrey St opp Puritan Rd,Humphrey Street,,,3.0,1
node-symcl-wb-etop,,,Symphony - Top of stairs for east entrances,,3,,Boston,Symphony,,,,,1
16466,,,,42.239521,0,-71.131791,Boston,Hyde Park Ave @ Milton St,Hyde Park Avenue,,,3.0,1
13853,,Village Road,,42.207003,0,-70.924716,Weymouth,Pleasant St @ Village Rd,Pleasant Street,,,3.0,1
node-pktrm-nbexitunpaid,,,Park Street - Unpaid side of exit-only gate,,3,,Boston,Park Street,,,,,1
node-890-unpaidstreet,,,Wood Island - Bottom of Elevator 890 (outside fare control),42.379529,3,-71.022854,Boston,Wood Island,,,,,1
7960,,Thomas Street,,42.434309,0,-71.175483,Arlington,Forest St @ Thomas St,Forest Street,,,3.0,1
node-knncl-sbsec-fareunpaid,,,Kendall/MIT - Unpaid side of fare gates,,3,,Cambridge,Kendall/MIT,,,,,1
3708,,,,42.242995,0,-70.948461,Weymouth,Sea St @ Bridge St,Sea Street,,,3.0,1
77,,Marlborough Street,,42.34995,0,-71.089148,Boston,Massachusetts Ave @ Marlborough St,Massachusetts Avenue,,,3.0,1
5923,,East Street,,42.458977,0,-71.048852,Melrose,Upham St @ East St,Upham Street,,,3.0,1
3023,,Linden Street,,42.270446,0,-71.020777,Quincy,Hancock St @ Linden St,Hancock Street,,,3.0,1
109836,,Pleasant Street,,42.38247,0,-70.991716,Winthrop,Main St @ Pleasant St,Main Street,,,3.0,1
place-bndhl,"1481 Beacon St, Brookline, MA",,,42.340023,1,-71.129082,Brookline,Brandon Hall,,,,,2
962,,Linden Street,,42.352908,0,-71.130286,Boston,Brighton Ave @ Linden St,Brighton Avenue,,,3.0,1
5259,,Allenwood Street,,42.283613,0,-71.149404,Boston,101 Anawan Ave opp Allenwood St,Anawan Avenue,,,3.0,1
node-448-lobby,,,Wollaston - Bottom of escalator from parking lobby to bridge,,3,,Quincy,Wollaston,,,,,1
7254,,Rand Street,,42.478504,0,-70.952235,Lynn,Chestnut St opp Rand St,Chestnut Street,,,3.0,1
3323,,Sea Street,,42.260827,0,-70.978562,Quincy,Palmer St @ Sea St,Palmer Street,,,3.0,1
NEC-2287-09,,,South Station - Commuter Rail - Track 9,42.351136,0,-71.055081,Boston,South Station,,9,Commuter Rail - Track 9,2.0,1
49834,,Montvale Road,,42.487925,0,-71.130188,Woburn,Pine St opp Montvale Rd,Pine Street,,,3.0,1
3906,,Rose Way,,42.166033,0,-71.006785,Holbrook,N Franklin St opp Rose Way,North Franklin Street,,,3.0,1
